name,lat,long,,,,,,,,,,,
용궁시장,36.607018,128.275372,,,,,,,,,,,
풍양시장,36.509273,128.299805,,,,,,,,,,,
울진바지게시장,36.991629,129.4020697,,,,,,,,,,,
죽변시장,37.058968,129.422254,,,,,,,,,,,
평해시장,36.726945,129.442436,,,,,,,,,,,
후포시장,36.677876,129.444227,,,,,,,,,,,
금성시장,36.256177,128.681416,,,,,,,,,,,
단촌정기시장,36.422542,128.673901,,,,,,,,,,,
봉양시장,36.299261,128.581592,,,,,,,,,,,
안계공설시장,36.384424,128.438345,,,,,,,,,,,
의성공설재래시장,36.345113,128.6998499,,,,,,,,,,,
의성염매시장,36.350235,128.695609,,,,,,,,,,,
동곡공설시장,35.692062,128.891077,,,,,,,,,,,
이서공설시장,35.662707,128.666433,,,,,,,,,,,
청도공설시장,35.642866,128.744445,,,,,,,,,,,
풍각공설시장,35.640775,128.617693,,,,,,,,,,,
도평시장,36.290109,129.0170801,,,,,,,,,,,
부남시장,36.346506,129.064442,,,,,,,,,,,
진보시장,36.528337,129.046406,,,,,,,,,,,
청송시장,36.435147,129.0521199,,,,,,,,,,,
화목시장,36.27540013,128.8973097,,,,,,,,,,,
안덕시장,36.288065,128.957951,,,,,,,,,,,
왜관시장,35.995151,128.398256,,,,,,,,,,,
구룡포시장,35.990315,129.554001,,,,,,,,,,,
그린종합시장,36.067294,129.3809605,,,,,,,,,,,
기계시장,36.069961,129.204502,,,,,,,,,,,
남부시장,36.012627,129.356143,,,,,,,,,,,
용상공설시장,36.559471,128.750164,,,,,,,,,,,
중앙신시장,36.565117,128.724162,,,,,,,,,,,
풍산공설시장,36.577209,128.576575,,,,,,,,,,,
북문시장,36.568524,128.732614,,,,,,,,,,,
강구시장,36.357835,129.379731,,,,,,,,,,,
남정시장,36.285548,129.372881,,,,,,,,,,,
영덕시장,36.406706,129.369695,,,,,,,,,,,
영해만세시장,36.540895,129.407185,,,,,,,,,,,
영양시장,36.664345,129.115973,,,,,,,,,,,
선비골전통시장,36.824243,128.623191,,,,,,,,,,,
신영주번개시장,36.812594,128.621876,,,,,,,,,,,
영주골목시장,36.824668,128.6228703,,,,,,,,,,,
영주공설시장,36.822556,128.6263204,,,,,,,,,,,
영주문화시장,36.823913,128.623562,,,,,,,,,,,
영주소백쇼핑몰,36.82348952,128.62617,,,,,,,,,,,
영주종합시장,36.813604,128.622179,,,,,,,,,,,
영주중앙시장,36.825739,128.620977,,,,,,,,,,,
풍기인삼시장,36.873027,128.523617,,,,,,,,,,,
풍기중앙시장,36.870602,128.528199,,,,,,,,,,,
풍기토종인삼시장,36.870288,128.522419,,,,,,,,,,,
후생시장,36.826967,128.623054,,,,,,,,,,,
금호공설시장,35.931669,128.873358,,,,,,,,,,,
신녕공설시장,36.042091,128.787469,,,,,,,,,,,
영천공설시장,35.964249,128.938582,,,,,,,,,,,
예천맛고을시장,36.656888,128.454883,,,,,,,,,,,
예천상설시장,36.65599016,128.456149,,,,,,,,,,,
예천중앙시장,36.657434,128.457829,,,,,,,,,,,
인동시장,36.108198,128.4209296,,,,,,,,,,,
장천시장,36.12569981,128.493409,,,,,,,,,,,
제일시장상가,36.101722,128.384107,,,,,,,,,,,
종합제일시장,36.130316,128.329649,,,,,,,,,,,
해평공설시장,36.195962,128.392355,,,,,,,,,,,
현대유통쇼핑센타,36.130024,128.330042,,,,,,,,,,,
형곡시장프라자,36.112882,128.334333,,,,,,,,,,,
형곡중앙시장,36.106318,128.336516,,,,,,,,,,,
군위전통시장,36.239752,128.567929,,,,,,,,,,,
의흥시장,36.174253,128.716305,,,,,,,,,,,
평화시장,36.123641,128.1130801,,,,,,,,,,,
황금시장,36.11665981,128.125283,,,,,,,,,,,
(유)문경시중앙시장,36.593536,128.197342,,,,,,,,,,,
가은아자개시장,36.646609,128.060989,,,,,,,,,,,
문경전통시장,36.735583,128.107479,,,,,,,,,,,
점촌전통시장 (구 신흥시장),36.601389,128.204163,,,,,,,,,,,
문경중앙시장,36.601389,128.204163,,,,,,,,,,,
봉화상설시장,36.890136,128.735509,,,,,,,,,,,
봉화춘양시장(춘양시장),36.936369,128.913044,,,,,,,,,,,
상주중앙시장,36.413194,128.1608304,,,,,,,,,,,
은척시장,36.532668,128.072955,,,,,,,,,,,
풍물시장,36.41284998,128.1606296,,,,,,,,,,,
함창시장,36.567324,128.179144,,,,,,,,,,,
화령시장,36.444791,127.950695,,,,,,,,,,,
성주시장,35.914466,128.285106,,,,,,,,,,,
구담공설시장,36.541716,128.464613,,,,,,,,,,,
안동구시장,36.565812,128.727874,,,,,,,,,,,
경산공설시장,35.820519,128.735758,,,,,,,,,,,
자인공설시장,35.816479,128.822971,,,,,,,,,,,
하양공설시장,35.915632,128.819253,,,,,,,,,,,
감포시장,35.80411024,129.502014,,,,,,,,,,,
경주성동공설시장,35.845546,129.2162805,,,,,,,,,,,
경주중심상가시장,35.842258,129.2146805,,,,,,,,,,,
경주중앙시장,35.84396049,129.206745,,,,,,,,,,,
북부상가시장,35.853493,129.2075801,,,,,,,,,,,
북정로중심상가시장,35.842292,129.215179,,,,,,,,,,,
불국사상가시장,35.785996,129.327853,,,,,,,,,,,
불국시장,35.77599964,129.3008003,,,,,,,,,,,
서면시장,35.895063,129.048043,,,,,,,,,,,
안강공설시장,35.990308,129.2217101,,,,,,,,,,,
양남시장,35.67537996,129.463651,,,,,,,,,,,
양북시장,35.790411,129.441215,,,,,,,,,,,
제2경주중심상가시장,35.842218,129.210661,,,,,,,,,,,
건천시장,35.848301,129.104811,,,,,,,,,,,
고령대가야시장,35.727309,128.266673,,,,,,,,,,,
구미공단종합시장,36.120636,128.371536,,,,,,,,,,,
구미산업유통단지,36.109878,128.402646,,,,,,,,,,,
구미새마을중앙시장,36.130846,128.329784,,,,,,,,,,,
구미종합상가,36.130511,128.330439,,,,,,,,,,,
구미파크시장,36.14936026,128.325471,,,,,,,,,,,
금오시장,36.126112,128.340602,,,,,,,,,,,
선산봉황시장,36.239519,128.300921,,,,,,,,,,,
신평전통시장,36.123159,128.361146,,,,,,,,,,,
영암5일시장,34.801239,126.700566,,,,,,,,,,,
노화읍5일시장,34.17756009,126.573213,,,,,,,,,,,
완도전통시장(구 완도5일시장),34.316104,126.748246,,,,,,,,,,,
완도중앙시장,34.31446984,126.755237,,,,,,,,,,,
사거리시장,35.427679,126.807263,,,,,,,,,,,
사창시장,35.260399,126.663071,,,,,,,,,,,
황룡시장,35.291685,126.7738898,,,,,,,,,,,
대덕읍전통시장(대덕시장),34.499438,126.887127,,,,,,,,,,,
정남진장흥토요시장,34.677272,126.9031396,,,,,,,,,,,
천관산관광시장,34.56276999,126.937079,,,,,,,,,,,
회진시장,34.482035,126.940318,,,,,,,,,,,
임회면십일시장,34.410989,126.192139,,,,,,,,,,,
진도상설시장,34.481354,126.264905,,,,,,,,,,,
진도읍조금시장,34.481479,126.256933,,,,,,,,,,,
나산시장,35.111836,126.609847,,,,,,,,,,,
월야시장,35.17926967,126.626779,,,,,,,,,,,
해보시장,35.181053,126.602552,,,,,,,,,,,
남리5일시장,34.575324,126.432484,,,,,,,,,,,
북평면남창5일시장,34.404536,126.626715,,,,,,,,,,,
송지산정5일시장,34.369647,126.519182,,,,,,,,,,,
우수영5일시장,34.809379,126.374239,,,,,,,,,,,
좌일5일시장,34.463855,126.672569,,,,,,,,,,,
해남읍5일시장,34.568785,126.597157,,,,,,,,,,,
화원5일시장,34.669496,126.328231,,,,,,,,,,,
능주전통시장,34.990914,126.959371,,,,,,,,,,,
이양전통시장,34.882485,126.987301,,,,,,,,,,,
화순전통시장(화순읍전통시장),35.059097,126.983399,,,,,,,,,,,
복내5일시장,34.89370035,127.133141,,,,,,,,,,,
조성5일시장,34.806479,127.245277,,,,,,,,,,,
괴목시장,35.102555,127.428225,,,,,,,,,,,
부산광역시철강판매협동조합,35.133204,128.966603,,,,,,,,,,,
순천시아랫장(순천아랫장),34.945147,127.49609,,,,,,,,,,,
승주시장,35.015675,127.3894901,,,,,,,,,,,
역전시장,34.943748,127.503331,,,,,,,,,,,
웃장,34.958646,127.485034,,,,,,,,,,,
중앙시장,34.953262,127.484603,,,,,,,,,,,
지도시장,35.058816,126.206982,,,,,,,,,,,
(주)서시장,34.741792,127.728616,,,,,,,,,,,
교동시장,34.739128,127.730129,,,,,,,,,,,
덕양시장,34.797962,127.632011,,,,,,,,,,,
도깨비시장,34.763319,127.656539,,,,,,,,,,,
봉산시장,34.732156,127.722412,,,,,,,,,,,
쌍봉시장,34.764148,127.664975,,,,,,,,,,,
여수서시장주변시장,34.740948,127.7285604,,,,,,,,,,,
여수수산물특화시장,34.736833,127.732889,,,,,,,,,,,
제일시장,34.764197,127.664652,,,,,,,,,,,
중앙선어시장,34.739451,127.736875,,,,,,,,,,,
중앙시장,34.740596,127.732565,,,,,,,,,,,
진남시장,34.764256,127.664123,,,,,,,,,,,
해안로건어물상가시장,34.739532,127.734527,,,,,,,,,,,
(주)여수수산시장,34.738142,127.731764,,,,,,,,,,,
영광고추특화시장,35.274728,126.493546,,,,,,,,,,,
굴비골영광시장(구 영광매일시장),35.275128,126.512323,,,,,,,,,,,
영광터미널시장,35.275536,126.5030195,,,,,,,,,,,
구림5일시장,34.762377,126.635342,,,,,,,,,,,
시종5일시장,34.867402,126.608099,,,,,,,,,,,
부강전통시장,36.528501,127.368882,,,,,,,,,,,
포방터시장,37.598671,126.948897,,,,,,,,,,,
송현자유시장,37.475902,126.633014,,,,,,,,,,,
정원시장,36.329106,127.431655,,,,,,,,,,,
연풍전통시장,36.764396,127.997624,,,,,,,,,,,
삼승원남시장(원남재래시장),36.396921,127.733145,,,,,,,,,,,
회인재래시장,36.490667,127.597779,,,,,,,,,,,
엄정내창시장,37.086396,127.915881,,,,,,,,,,,
광시시장,36.549118,126.774424,,,,,,,,,,,
마천전통시장,35.395649,127.662681,,,,,,,,,,,
영등포유통상가,37.522417,126.8939303,,,,,,,,,,,
고려쇼핑센터,35.163619,128.984183,,,,,,,,,,,
Team204,37.567713,127.013197,,,,,,,,,,,
문화의거리 행복상점가,36.596686,128.199258,,,,,,,,,,,
점촌역전상점가,36.595797,128.202312,,,,,,,,,,,
남성시장,36.414411,128.162107,,,,,,,,,,,
중곡제일시장(이오상사),37.563908,127.081301,,,,,,,,,,,
한아름시장,37.543959,127.069758,,,,,,,,,,,
칠성상가시장,35.875611,128.605314,,,,,,,,,,,
소래포구전통어시장,37.398195,126.739394,,,,,,,,,,,
하복대시장,36.635638,127.427467,,,,,,,,,,,
봉화내성시장,36.888982,128.739469,,,,,,,,,,,
거제읍내시장,34.850559,128.590311,,,,,,,,,,,
관악종합시장,37.481577,126.928063,,,,,,,,,,,
조양시장(건물형),37.538997,127.067489,,,,,,,,,,,
상계중앙시장,37.659049,127.070277,,,,,,,,,,,
신도봉시장,37.670015,127.041124,,,,,,,,,,,
중부시장,37.565063,127.001905,,,,,,,,,,,
테크노상가,37.568846,127.013238,,,,,,,,,,,
동원시장,37.589838,127.089893,,,,,,,,,,,
면목시장,37.579552,127.086299,,,,,,,,,,,
금광시장,37.450033,127.159906,,,,,,,,,,,
마로관기시장(관기재래시장),36.435243,127.817596,,,,,,,,,,,
연수상가,36.984783,127.933227,,,,,,,,,,,
공주산성시장,36.458818,127.122614,,,,,,,,,,,
금산인삼전통시장,36.100459,127.492185,,,,,,,,,,,
마전시장,36.190606,127.466976,,,,,,,,,,,
웅천시장,36.23299004,126.601268,,,,,,,,,,,
덕산시장,36.704977,126.668157,,,,,,,,,,,
지리산나들이장터,35.311471,127.4444997,,,,,,,,,,,
세종대평시장,36.467267,127.282059,,,,,,,,,,,
여주한글시장(여주중앙로상점가),37.297551,127.634289,,,,,,,,,,,
진주청과시장,35.196246,128.086685,,,,,,,,,,,
청평여울시장,37.736048,127.418127,,,,,,,,,,,
모란전통기름시장,37.430908,127.128008,,,,,,,,,,,
중부농수산물시장,37.395908,126.925615,,,,,,,,,,,
철뚝시장,35.14222041,129.061569,,,,,,,,,,,
답십리건축자재시장,37.56745985,127.053488,,,,,,,,,,,
신곡종합시장,37.518369,126.843197,,,,,,,,,,,
신정제일시장,37.520842,126.853684,,,,,,,,,,,
주암시장,35.075741,127.235263,,,,,,,,,,,
대천항종합수산물시장,36.326609,126.506108,,,,,,,,,,,
부여 새시장,36.280991,126.909648,,,,,,,,,,,
광천원동시장,36.502325,126.625011,,,,,,,,,,,
안산패션타운전통시장,37.304981,126.844665,,,,,,,,,,,
안산 다농마트 전통시장,37.328361,126.844239,,,,,,,,,,,
풍기선비골인삼시장,36.888503,128.540689,,,,,,,,,,,
고척골목시장상점가,37.503375,126.862709,,,,,,,,,,,
청계상가,37.56797977,126.995365,,,,,,,,,,,
장미제일시장,37.605174,127.076373,,,,,,,,,,,
오이도전통수산시장,37.345881,126.6882099,,,,,,,,,,,
양동쌍학시장,37.420174,127.753197,,,,,,,,,,,
청림시장,35.996577,129.410355,,,,,,,,,,,
환호그린빌시장,36.068129,129.391148,,,,,,,,,,,
삼천포전통수산시장,34.927174,128.069893,,,,,,,,,,,
석계시장,35.419573,129.063938,,,,,,,,,,,
제천고추시장,37.156434,128.175046,,,,,,,,,,,
부곡시장,36.125493,128.104445,,,,,,,,,,,
중앙시장,36.119086,128.124828,,,,,,,,,,,
모슬포중앙시장,33.222067,126.254514,,,,,,,,,,,
서귀포매일올레시장,33.250149,126.563231,,,,,,,,,,,
서귀포향토오일시장,33.267789,126.573742,,,,,,,,,,,
중문오일시장,33.250583,126.423947,,,,,,,,,,,
표선오일시장,33.322717,126.830383,,,,,,,,,,,
도남시장,33.496812,126.528404,,,,,,,,,,,
동문시장(주),33.512797,126.5283197,,,,,,,,,,,
보성시장,33.503308,126.527939,,,,,,,,,,,
세화오일시장,33.526186,126.857297,,,,,,,,,,,
신산시장,33.506036,126.54198,,,,,,,,,,,
제주동문수산시장,33.512066,126.524903,,,,,,,,,,,
제주시동문공설시장,33.512087,126.528242,,,,,,,,,,,
제주시동문재래시장,33.51159028,126.526018,,,,,,,,,,,
제주시민속오일시장,33.497247,126.474888,,,,,,,,,,,
제주시서문공설시장,33.511351,126.517906,,,,,,,,,,,
제주칠성로상점가(칠성로상점가),33.514026,126.526115,,,,,,,,,,,
중앙로상점가,33.51010018,126.523961,,,,,,,,,,,
한림매일시장,33.415647,126.264773,,,,,,,,,,,
한림민속오일시장(한림오일시장),33.419832,126.274504,,,,,,,,,,,
함덕오일시장,33.540253,126.667961,,,,,,,,,,,
세종전통시장,36.599789,127.300612,,,,,,,,,,,
전의왕의물시장,36.67774034,127.205879,,,,,,,,,,,
대명여울빛거리시장,37.452773,126.901649,,,,,,,,,,,
서문시장 아진상가 상점가,35.869949,128.581582,,,,,,,,,,,
남동산업용품상가,37.406946,126.693402,,,,,,,,,,,
언양알프스시장,35.563702,129.1252897,,,,,,,,,,,
합성옛길시장,35.235342,128.582012,,,,,,,,,,,
회성종합시장,35.2329295,128.5594101,,,,,,,,,,,
합성대로상가,35.238932,128.582417,,,,,,,,,,,
북신전통시장,34.854155,128.427531,,,,,,,,,,,
서호전통시장,34.841462,128.420116,,,,,,,,,,,
통영중앙전통시장,34.845293,128.424614,,,,,,,,,,,
계천공설시장(계천시장),34.995988,127.809499,,,,,,,,,,,
북천공설시장,35.114027,127.891953,,,,,,,,,,,
옥종공설시장,35.18209956,127.880221,,,,,,,,,,,
덕하시장,35.49144017,129.3059962,,,,,,,,,,,
진교공설시장,35.027174,127.903816,,,,,,,,,,,
하동공설시장,35.069808,127.748381,,,,,,,,,,,
화개장터,35.188624,127.624224,,,,,,,,,,,
횡천공설시장(횡천시장),35.109212,127.8107002,,,,,,,,,,,
가야상설시장(가야시장),35.277261,128.406464,,,,,,,,,,,
군복공설시장,35.261048,128.346946,,,,,,,,,,,
대산공설시장,35.352837,128.428129,,,,,,,,,,,
칠원공설시장,35.3061904,128.518908,,,,,,,,,,,
안의시장,35.626298,127.814034,,,,,,,,,,,
지리산함양시장,35.518601,127.728988,,,,,,,,,,,
함양토종약초시장,35.625966,127.813715,,,,,,,,,,,
가야시장,35.760246,128.138366,,,,,,,,,,,
삼가시장,35.412815,128.122283,,,,,,,,,,,
야로시장,35.706127,128.168569,,,,,,,,,,,
초계시장,35.559315,128.266834,,,,,,,,,,,
합천시장,35.568507,128.161164,,,,,,,,,,,
고성오일시장,33.451862,126.912815,,,,,,,,,,,
대정오일시장,33.220607,126.248213,,,,,,,,,,,
성원3차상가,35.21499999,128.7052999,,,,,,,,,,,
성원그랜드쇼핑상가,35.219374,128.691593,,,,,,,,,,,
소계시장,35.256759,128.598966,,,,,,,,,,,
소계옛길시장,35.257913,128.598267,,,,,,,,,,,
소답시장,35.265746,128.6207603,,,,,,,,,,,
신마산반월시장(반월시장),35.189659,128.561183,,,,,,,,,,,
신마산시장,35.181097,128.561702,,,,,,,,,,,
양곡종합상가,35.200851,128.628329,,,,,,,,,,,
양덕중앙시장,35.2326503,128.584264,,,,,,,,,,,
역전통합시장,35.236147,128.579464,,,,,,,,,,,
웅천시장,35.111019,128.750903,,,,,,,,,,,
월영대시장,35.179275,128.5577604,,,,,,,,,,,
유신종합상가,35.207561,128.626781,,,,,,,,,,,
정우새어시장,35.204104,128.578711,,,,,,,,,,,
중앙시장(창원중앙시장),35.230171,128.671939,,,,,,,,,,,
지귀시장,35.245811,128.659847,,,,,,,,,,,
진동시장,35.113595,128.487926,,,,,,,,,,,
진동전통시장,35.113306,128.487324,,,,,,,,,,,
진해중부시장,35.155072,128.681561,,,,,,,,,,,
진해중앙시장,35.151082,128.6652503,,,,,,,,,,,
창원기계공구상가,35.233767,128.641078,,,,,,,,,,,
창원도계부부시장,35.257215,128.637139,,,,,,,,,,,
창원캔버라상가,35.221233,128.676828,,,,,,,,,,,
창원코아상가,35.220442,128.679542,,,,,,,,,,,
코오롱타운상가,35.265706,128.525608,,,,,,,,,,,
토월복합상가시장,35.228037,128.691939,,,,,,,,,,,
합성동상가,35.237725,128.583461,,,,,,,,,,,
대동씨코아상가시장,35.179759,128.562476,,,,,,,,,,,
대동중앙상가,35.253607,128.615835,,,,,,,,,,,
대동훼미리코아상가,35.211749,128.7076298,,,,,,,,,,,
대방덕산1차상가,35.213619,128.706891,,,,,,,,,,,
덕산그린피아상가,35.221681,128.676025,,,,,,,,,,,
동마산시장,35.240037,128.587545,,,,,,,,,,,
동성올림픽타운,35.222233,128.677733,,,,,,,,,,,
롯데종합상가,35.234038,128.685432,,,,,,,,,,,
마산수산시장,35.201817,128.5789097,,,,,,,,,,,
마산어시장,35.203762,128.578956,,,,,,,,,,,
마산역번개시장,35.235775,128.578798,,,,,,,,,,,
마천시장,35.125388,128.7828095,,,,,,,,,,,
명곡종합상가,35.248487,128.646219,,,,,,,,,,,
명서시장,35.249445,128.645974,,,,,,,,,,,
반송시장,35.235134,128.6710497,,,,,,,,,,,
봉곡민속체험시장(봉곡시장),35.24696954,128.671971,,,,,,,,,,,
봉곡프라자상가,35.24543957,128.659518,,,,,,,,,,,
부림상시장,35.205773,128.572446,,,,,,,,,,,
부림시장,35.207185,128.572901,,,,,,,,,,,
북동공설시장,35.266181,128.620696,,,,,,,,,,,
북마산가구시장,35.208995,128.572786,,,,,,,,,,,
북마산중앙시장,35.216035,128.571174,,,,,,,,,,,
사파동성종합상가,35.219477,128.702189,,,,,,,,,,,
산호시장,35.218374,128.581716,,,,,,,,,,,
상남시장,35.222215,128.68338,,,,,,,,,,,
서마산시장,35.22902031,128.569129,,,,,,,,,,,
석전시장,35.230411,128.574906,,,,,,,,,,,
언양공설시장,35.56301518,129.1253841,,,,,,,,,,,
언양종합상가시장,35.56349828,129.1259648,,,,,,,,,,,
덕신1차시장,35.43524242,129.309349,,,,,,,,,,,
덕신2차시장,35.42934943,129.3100244,,,,,,,,,,,
수암종합시장,35.5278581,129.320239,,,,,,,,,,,
야음상가시장,35.523617,129.3318715,,,,,,,,,,,
㈜야음시장,35.52405894,129.3313722,,,,,,,,,,,
신정평화시장,35.538337,129.3035526,,,,,,,,,,,
울산산업공구월드,35.535788,129.3426382,,,,,,,,,,,
반구시장,35.55838627,129.3434196,,,,,,,,,,,
우정전통시장,35.5548812,129.3100508,,,,,,,,,,,
울산시장,35.5554665,129.3284088,,,,,,,,,,,
성남프라자,35.5545103,129.3175359,,,,,,,,,,,
선우시장,35.57119003,129.3421097,,,,,,,,,,,
병영시장,35.5705654,129.3462928,,,,,,,,,,,
역전시장,35.5561541,129.3284797,,,,,,,,,,,
우정시장,35.5546219,129.3100727,,,,,,,,,,,
학성종합시장,35.5544211,129.3320577,,,,,,,,,,,
태화종합시장,35.55419983,129.3074139,,,,,,,,,,,
신울산종합시장,35.5612392,129.3373679,,,,,,,,,,,
학성새벽시장,35.55655467,129.3326793,,,,,,,,,,,
중앙전통시장,35.5551774,129.3222936,,,,,,,,,,,
구역전시장,35.5570211,129.3284786,,,,,,,,,,,
서동시장,35.58205471,129.3465532,,,,,,,,,,,
옥골시장,35.55542851,129.3236227,,,,,,,,,,,
구역전전통시장,35.5559093,129.3279529,,,,,,,,,,,
호계공설시장,35.62359655,129.3557296,,,,,,,,,,,
화봉시장,35.58882126,129.3658152,,,,,,,,,,,
남창옹기종기시장,35.41669017,129.2827773,,,,,,,,,,,
봉계시장,35.7133828,129.1991746,,,,,,,,,,,
남목시티시장,35.5427086,129.4285507,,,,,,,,,,,
신정상가시장,35.5419608,129.3090764,,,,,,,,,,,
㈜신정시장,35.5423359,129.3102844,,,,,,,,,,,
울산번개시장,35.520239,129.3367745,,,,,,,,,,,
수암상가시장,35.5269662,129.3207713,,,,,,,,,,,
동울산종합시장,35.5088339,129.425456,,,,,,,,,,,
대송농수산물시장,35.49920742,129.420604,,,,,,,,,,,
전하시장,35.5137806,129.430723,,,,,,,,,,,
남목시장,35.5427156,129.4273869,,,,,,,,,,,
동부시장,35.5426465,129.4280925,,,,,,,,,,,
용인중앙시장,37.236506,127.207071,,,,,,,,,,,
죽전로데오상점가시장,37.328761,127.108104,,,,,,,,,,,
화천재래시장,38.103715,127.705625,,,,,,,,,,,
구리전통시장,37.599546,127.139929,,,,,,,,,,,
안면도수산시장,36.51635582,126.346007,,,,,,,,,,,
백운시장,37.655638,127.0156253,,,,,,,,,,,
방학동도깨비시장,37.66594191,127.0362056,,,,,,,,,,,
창동신창시장,37.6394346,127.0374397,,,,,,,,,,,
창동골목시장,37.638352,127.0391199,,,,,,,,,,,
신도봉시장,37.6700601,127.0411223,,,,,,,,,,,
쌍문시장,37.648244,127.0328194,,,,,,,,,,,
특산물전통시장,36.751301,126.2984694,,,,,,,,,,,
서부시장,36.752927,126.2968099,,,,,,,,,,,
통진시장,37.69240314,126.5993151,,,,,,,,,,,
양곡시장,37.654818,126.623703,,,,,,,,,,,
양곡오라니장터시장,37.65616115,126.6237054,,,,,,,,,,,
금촌전통시장,37.762599,126.773886,,,,,,,,,,,
문산자유시장,37.8569889,126.7841888,,,,,,,,,,,
광탄시장,37.782166,126.848473,,,,,,,,,,,
적성전통시장,37.9554549,126.918612,,,,,,,,,,,
금촌문화로시장,37.7625985,126.775133,,,,,,,,,,,
금촌명동로시장,37.7630739,126.7735887,,,,,,,,,,,
봉일천시장,37.7432033,126.8072915,,,,,,,,,,,
속초중앙전통시장,38.20475131,128.5873483,,,,,,,,,,,
속초종합중앙시장,38.20452183,128.5901534,,,,,,,,,,,
다인,36.45035579,128.3557412,,,,,,,,,,,
신평,36.47035825,128.5061583,,,,,,,,,,,
안평,36.37545455,128.5798952,,,,,,,,,,,
염매,36.35027504,128.695902,,,,,,,,,,,
김포중앙시장,37.62610505,126.710509,,,,,,,,,,,
흥덕전통시장,35.52058954,126.7002283,,,,,,,,,,,
해리전통시장,35.45933217,126.5415058,,,,,,,,,,,
대산전통시장,35.34010874,126.5989796,,,,,,,,,,,
상하전통시장,35.44422672,126.4912177,,,,,,,,,,,
신철원전통시장,38.144755,127.3100254,,,,,,,,,,,
와수전통시장,38.23946579,127.439413,,,,,,,,,,,
동송전통시장,38.2089859,127.2192647,,,,,,,,,,,
동송전통시장,38.20880978,127.218876,,,,,,,,,,,
고창전통시장,35.43266509,126.6987705,,,,,,,,,,,
무장전통시장,35.41442786,126.5606051,,,,,,,,,,,
의성,36.346247,128.6991566,,,,,,,,,,,
단촌,36.422545,128.673903,,,,,,,,,,,
옥산,36.40119872,128.8024126,,,,,,,,,,,
금성,36.25298306,128.6845492,,,,,,,,,,,
봉양,36.29956469,128.5814145,,,,,,,,,,,
안계,36.38442411,128.4383471,,,,,,,,,,,
삼구시장,37.520144,126.9057495,,,,,,,,,,,
영신상가,37.51992006,126.906655,,,,,,,,,,,
영일시장,37.516135,126.900719,,,,,,,,,,,
영진시장(A동),37.500371,126.9159498,,,,,,,,,,,
만리시장,37.551333,126.963696,,,,,,,,,,,
보광시장,37.527196,127.000289,,,,,,,,,,,
신흥시장,37.545324,126.985086,,,,,,,,,,,
용산용문시장,37.536623,126.959796,,,,,,,,,,,
이촌종합시장,37.520739,126.974784,,,,,,,,,,,
이태원시장,37.533818,126.990048,,,,,,,,,,,
후암시장,37.550381,126.976634,,,,,,,,,,,
대림골목시장,37.587914,126.917508,,,,,,,,,,,
대림시장,37.586537,126.917578,,,,,,,,,,,
대조시장,37.609321,126.9276,,,,,,,,,,,
신응암시장,37.593908,126.918694,,,,,,,,,,,
연서시장,37.619691,126.922172,,,,,,,,,,,
제일시장,37.610623,126.929466,,,,,,,,,,,
증산종합시장,37.581469,126.905062,,,,,,,,,,,
광장시장,37.570113,126.999707,,,,,,,,,,,
동대문종합시장,37.570706,127.007329,,,,,,,,,,,
동대문종합시장D동상가,37.570706,127.007329,,,,,,,,,,,
동문시장㈜,37.570511,127.011128,,,,,,,,,,,
신설종합시장,37.57266959,127.020345,,,,,,,,,,,
종로신진시장,37.570228,127.004946,,,,,,,,,,,
통인시장,37.580767,126.969948,,,,,,,,,,,
한일상가,37.570134,127.003025,,,,,,,,,,,
동대문종합시장 신관(동대문쇼핑타운),37.570819,127.008091,,,,,,,,,,,
남부종합시장,37.494992,126.984806,,,,,,,,,,,
양재시장,37.484311,127.037966,,,,,,,,,,,
금남시장,37.548628,127.023044,,,,,,,,,,,
뚝도시장,37.537801,127.054827,,,,,,,,,,,
마장축산물시장,37.570682,127.041275,,,,,,,,,,,
용답상가시장,37.564169,127.052539,,,,,,,,,,,
길음시장,37.602781,127.021592,,,,,,,,,,,
돈암시장,37.591666,127.015712,,,,,,,,,,,
돌곶이시장(구 석관황금시장),37.609502,127.061658,,,,,,,,,,,
장위전통시장,37.612088,127.050805,,,,,,,,,,,
정릉시장,37.608471,127.009681,,,,,,,,,,,
정릉아리랑시장,37.602768,127.011039,,,,,,,,,,,
마천시장,37.49808049,127.150696,,,,,,,,,,,
마천중앙시장,37.498414,127.151336,,,,,,,,,,,
방이시장,37.509952,127.117866,,,,,,,,,,,
새마을시장,37.509089,127.0849001,,,,,,,,,,,
석촌시장,37.500173,127.106525,,,,,,,,,,,
풍납시장,37.537565,127.119493,,,,,,,,,,,
경창시장,37.524934,126.842121,,,,,,,,,,,
목2동시장,37.5460499,126.873887,,,,,,,,,,,
목동깨비시장 (목3동시장),37.548185,126.865229,,,,,,,,,,,
목사랑시장 (목4동시장),37.537616,126.866218,,,,,,,,,,,
신월1동신영시장,37.533014,126.836025,,,,,,,,,,,
우성상가시장,37.52265956,126.833571,,,,,,,,,,,
월정로시장,37.533473,126.835689,,,,,,,,,,,
대림중앙시장,37.490384,126.901268,,,,,,,,,,,
대신시장,37.511071,126.917586,,,,,,,,,,,
동남상가,37.520597,126.9056598,,,,,,,,,,,
청량리농수산물시장,37.580914,127.0403796,,,,,,,,,,,
청량리수산시장,37.578073,127.040951,,,,,,,,,,,
청량리전통시장,37.580887,127.042326,,,,,,,,,,,
청량리종합시장,37.579338,127.040858,,,,,,,,,,,
청량리청과물시장,37.57959,127.040684,,,,,,,,,,,
청량종합도매시장(깡통시장),37.581909,127.040311,,,,,,,,,,,
회기시장,37.59097015,127.054979,,,,,,,,,,,
강남시장,37.49693976,126.953541,,,,,,,,,,,
남성시장,37.48816011,126.981565,,,,,,,,,,,
남성역골목시장,37.482988,126.972325,,,,,,,,,,,
본동인정시장,37.51223042,126.951897,,,,,,,,,,,
사당시장,37.482883,126.975338,,,,,,,,,,,
상도전통시장,37.499677,126.951537,,,,,,,,,,,
성대시장,37.499943,126.931776,,,,,,,,,,,
성대전통시장,37.499218,126.930857,,,,,,,,,,,
공덕시장,37.544795,126.953258,,,,,,,,,,,
동진시장,37.562377,126.926763,,,,,,,,,,,
마포농수산물시장,37.565199,126.898483,,,,,,,,,,,
마포시장,37.545392,126.953319,,,,,,,,,,,
망원동월드컵시장,37.558731,126.905081,,,,,,,,,,,
망원시장,37.557157,126.905994,,,,,,,,,,,
서교시장,37.553516,126.921715,,,,,,,,,,,
아현시장,37.556407,126.955081,,,,,,,,,,,
영진시장,37.553465,126.912692,,,,,,,,,,,
백련시장,37.577001,126.923101,,,,,,,,,,,
연희사러가,37.567155,126.929661,,,,,,,,,,,
영천시장,37.570334,126.961848,,,,,,,,,,,
유진상가,37.591607,126.942942,,,,,,,,,,,
인왕시장,37.591218,126.943319,,,,,,,,,,,
신성종합시장(건물형),37.558081,127.088051,,,,,,,,,,,
영동교골목시장,37.537526,127.064205,,,,,,,,,,,
자양전통시장,37.534382,127.079189,,,,,,,,,,,
중곡제일전통시장(중곡제일시장),37.563883,127.081765,,,,,,,,,,,
화양제일골목시장,37.543491,127.069292,,,,,,,,,,,
가리봉시장,37.481677,126.889078,,,,,,,,,,,
개봉중앙시장,37.491784,126.854072,,,,,,,,,,,
개봉프라자,37.501957,126.8511199,,,,,,,,,,,
고척근린시장,37.501957,126.8511199,,,,,,,,,,,
구로시장,37.48963005,126.8856198,,,,,,,,,,,
남구로시장,37.490208,126.886432,,,,,,,,,,,
남문시장,37.473767,126.900424,,,,,,,,,,,
은행나무시장,37.451318,126.909349,,,,,,,,,,,
비단길현대시장,37.457727,126.904877,,,,,,,,,,,
공릉동도깨비시장,37.62269037,127.076249,,,,,,,,,,,
방학동도깨비시장,37.665941,127.036206,,,,,,,,,,,
백운시장,37.655496,127.014885,,,,,,,,,,,
쌍문시장,37.648367,127.032968,,,,,,,,,,,
창동골목시장,37.638401,127.039145,,,,,,,,,,,
창동신창시장,37.639435,127.037455,,,,,,,,,,,
경동광성상가,37.580991,127.0388095,,,,,,,,,,,
경동시장,37.578784,127.039659,,,,,,,,,,,
답십리시장,37.573194,127.058066,,,,,,,,,,,
답십리현대시장,37.566782,127.058649,,,,,,,,,,,
동부시장,37.567576,127.052209,,,,,,,,,,,
동서시장,37.579726,127.041221,,,,,,,,,,,
서울약령시장,37.58060041,127.037587,,,,,,,,,,,
전농로터리시장,37.578144,127.057028,,,,,,,,,,,
우이시장,37.646037,127.020016,,,,,,,,,,,
장미원골목시장,37.644633,127.016016,,,,,,,,,,,
까치산시장,37.531531,126.8478603,,,,,,,,,,,
남부골목시장,37.532238,126.8607298,,,,,,,,,,,
남부화곡시장,37.533071,126.858952,,,,,,,,,,,
대원종합시장,37.544487,126.836475,,,,,,,,,,,
등마루시장,37.55666003,126.860265,,,,,,,,,,,
방신전통시장,37.571508,126.812647,,,,,,,,,,,
신월중앙시장,37.527969,126.841906,,,,,,,,,,,
화곡본동시장,37.542885,126.844129,,,,,,,,,,,
화곡중앙골목시장,37.534884,126.839506,,,,,,,,,,,
관악신사시장,37.486792,126.917073,,,,,,,,,,,
봉일시장,37.485925,126.9383804,,,,,,,,,,,
봉천제일종합시장,37.48124954,126.944416,,,,,,,,,,,
봉천중앙시장,37.484196,126.954327,,,,,,,,,,,
봉천현대시장,37.486431,126.946515,,,,,,,,,,,
신림종합시장,37.484646,126.917093,,,,,,,,,,,
신림중앙시장,37.483145,126.911421,,,,,,,,,,,
신림현대종합상가,37.474627,126.933805,,,,,,,,,,,
신신림시장,37.470661,126.932146,,,,,,,,,,,
신원시장,37.482066,126.927379,,,,,,,,,,,
우림시장,37.470466,126.921091,,,,,,,,,,,
인헌시장,37.474862,126.9647704,,,,,,,,,,,
펭귄시장,37.483145,126.911421,,,,,,,,,,,
광성시장,37.563586,127.0811202,,,,,,,,,,,
노룬산골목시장(인정시장),37.532183,127.086239,,,,,,,,,,,
노룬산시장(건물형),37.536485,127.064878,,,,,,,,,,,
능동로골목시장,37.535145,127.066656,,,,,,,,,,,
강남시장,37.518767,127.020692,,,,,,,,,,,
신사상가,37.532288,127.028402,,,,,,,,,,,
영동전통시장,37.509995,127.023823,,,,,,,,,,,
청담삼익시장,37.522445,127.0576204,,,,,,,,,,,
고분다리전통시장,37.54248956,127.131929,,,,,,,,,,,
길동복조리시장,37.537571,127.143762,,,,,,,,,,,
둔촌역전통시장,37.528059,127.134969,,,,,,,,,,,
명일전통시장,37.549532,127.144954,,,,,,,,,,,
성내전통시장,37.534168,127.127889,,,,,,,,,,,
암사종합시장,37.550546,127.128715,,,,,,,,,,,
강북북부시장,37.636236,127.030342,,,,,,,,,,,
동북시장,37.620422,127.019095,,,,,,,,,,,
수유북부시장,37.636758,127.016487,,,,,,,,,,,
수유시장,37.630729,127.022668,,,,,,,,,,,
수유재래시장,37.63153004,127.0223303,,,,,,,,,,,
수유전통시장(수유골목시장),37.630729,127.022668,,,,,,,,,,,
수유중앙시장,37.640337,127.021176,,,,,,,,,,,
수유프라자,37.631693,127.023467,,,,,,,,,,,
숭인시장,37.613144,127.029453,,,,,,,,,,,
팔달신시장,35.892288,128.566322,,,,,,,,,,,
산업용재관,35.904966,128.606396,,,,,,,,,,,
섬유제품관,35.906279,128.609661,,,,,,,,,,,
전기재료관,35.905061,128.607713,,,,,,,,,,,
전기조명관,35.905696,128.608275,,,,,,,,,,,
전자관,35.907203,128.607019,,,,,,,,,,,
전자상가,35.905457,128.604982,,,,,,,,,,,
칠성본시장,35.875515,128.60438,,,,,,,,,,,
칠성전자주방시장,35.880234,128.601551,,,,,,,,,,,
대평리시장,35.878011,128.558935,,,,,,,,,,,
새길시장,35.865039,128.571568,,,,,,,,,,,
서구시장,35.873938,128.5556896,,,,,,,,,,,
서부시장,35.87330956,128.572047,,,,,,,,,,,
신평리시장,35.868099,128.560686,,,,,,,,,,,
원고개시장,35.88028036,128.568298,,,,,,,,,,,
원대신시장,35.885535,128.574801,,,,,,,,,,,
이현시장,35.876951,128.550636,,,,,,,,,,,
중평시장,35.865371,128.553907,,,,,,,,,,,
동성시장,35.855659,128.616956,,,,,,,,,,,
수성시장,35.855655,128.617006,,,,,,,,,,,
신매시장,35.83727992,128.709722,,,,,,,,,,,
지산목련시장(지산종합시장),35.820797,128.631863,,,,,,,,,,,
청구시장,35.864854,128.644077,,,,,,,,,,,
태백시장,35.855188,128.616759,,,,,,,,,,,
황금시장,35.84839977,128.619956,,,,,,,,,,,
교동시장,35.873701,128.598366,,,,,,,,,,,
남문시장,35.861081,128.591983,,,,,,,,,,,
동산상가,35.868955,128.5817199,,,,,,,,,,,
명품프라자상가,35.869908,128.580904,,,,,,,,,,,
용산종합큰시장,35.858051,128.531172,,,,,,,,,,,
월배시장,35.814074,128.527398,,,,,,,,,,,
월성청구시장,35.827531,128.531104,,,,,,,,,,,
두류신시장,35.845275,128.546225,,,,,,,,,,,
논공중앙시장,35.728387,128.446591,,,,,,,,,,,
현풍백년도깨비시장,35.694761,128.442229,,,,,,,,,,,
화원시장,35.801292,128.499094,,,,,,,,,,,
공항시장,35.896393,128.638242,,,,,,,,,,,
동구시장,35.874055,128.639573,,,,,,,,,,,
동대구역전시장,35.874301,128.620568,,,,,,,,,,,
동서시장,35.888204,128.6333701,,,,,,,,,,,
목련시장,35.869982,128.704661,,,,,,,,,,,
반야월종합시장,35.872406,128.702448,,,,,,,,,,,
방촌시장,35.881302,128.664427,,,,,,,,,,,
불로전통시장,35.87461007,128.688973,,,,,,,,,,,
송라시장,35.874485,128.615311,,,,,,,,,,,
평화시장,35.88259978,128.619399,,,,,,,,,,,
대구능금시장,35.87714991,128.601968,,,,,,,,,,,
대구청과시장,35.87702959,128.603913,,,,,,,,,,,
동대구시장,35.881079,128.609091,,,,,,,,,,,
동대구신시장,35.882191,128.609791,,,,,,,,,,,
산격종합시장,35.898637,128.610352,,,,,,,,,,,
삼성시장,35.877819,128.6034802,,,,,,,,,,,
서변중앙시장,35.921003,128.596176,,,,,,,,,,,
중앙시장,35.921664,128.544908,,,,,,,,,,,
칠곡시장,35.942525,128.551221,,,,,,,,,,,
칠성시장,35.87631033,128.605429,,,,,,,,,,,
칠성진시장,35.875719,128.604065,,,,,,,,,,,
방천시장,35.862237,128.605933,,,,,,,,,,,
남부시장,35.841403,128.576929,,,,,,,,,,,
대명시장,35.858409,128.577165,,,,,,,,,,,
대명신시장,35.85802009,128.576886,,,,,,,,,,,
대명중앙시장,35.836807,128.567707,,,,,,,,,,,
명덕시장,35.844796,128.588269,,,,,,,,,,,
봉덕시장,35.845711,128.603691,,,,,,,,,,,
봉덕신시장,35.845139,128.603394,,,,,,,,,,,
성당시장,35.850169,128.5729695,,,,,,,,,,,
안지랑시장,35.836856,128.575154,,,,,,,,,,,
영선신시장,35.852305,128.592921,,,,,,,,,,,
달서송림시장,35.836861,128.547072,,,,,,,,,,,
달서시장,35.840195,128.544242,,,,,,,,,,,
대곡시장,35.807583,128.535459,,,,,,,,,,,
대구대동시장,35.811671,128.537786,,,,,,,,,,,
대구예전우시장,35.858536,128.562032,,,,,,,,,,,
도원시장,35.8075801,128.536719,,,,,,,,,,,
두류종합시장,35.845493,128.545142,,,,,,,,,,,
보성은하상가,35.823583,128.534298,,,,,,,,,,,
상원시장,35.809027,128.551285,,,,,,,,,,,
상인영남상가,35.816518,128.542577,,,,,,,,,,,
서남시장,35.854367,128.545173,,,,,,,,,,,
서남신시장,35.854013,128.545901,,,,,,,,,,,
서대구시장,35.860598,128.570687,,,,,,,,,,,
성서보성화성상가,35.855664,128.504121,,,,,,,,,,,
송경종합시장,35.827097,128.551634,,,,,,,,,,,
송현주공시장(월촌역시장),35.822741,128.548177,,,,,,,,,,,
신내당시장,35.854621,128.553854,,,,,,,,,,,
와룡시장,35.855816,128.499326,,,,,,,,,,,
성서용산시장,35.855138,128.521374,,,,,,,,,,,
만물의거리시장,35.101485,129.028551,,,,,,,,,,,
보수종합시장,35.104211,129.021808,,,,,,,,,,,
부산데파트,35.098305,129.036702,,,,,,,,,,,
부산자갈밭시장,35.096614,129.030584,,,,,,,,,,,
부평깡통시장,35.101559,129.026021,,,,,,,,,,,
새영주시장,35.112702,129.036302,,,,,,,,,,,
신동아수산물종합시장,35.096721,129.0286701,,,,,,,,,,,
신창상가,35.101179,129.030201,,,,,,,,,,,
신천지시장,35.097055,129.0278397,,,,,,,,,,,
아리랑거리,35.100457,129.028969,,,,,,,,,,,
영주시장,35.11189976,129.036985,,,,,,,,,,,
월드밸리,35.102804,129.026358,,,,,,,,,,,
자갈치시장,35.096614,129.030584,,,,,,,,,,,
창선상가,35.10194037,129.027741,,,,,,,,,,,
반송큰시장(반송2동시장),35.231117,129.1562096,,,,,,,,,,,
반송골목시장,35.224288,129.150333,,,,,,,,,,,
반송시장,35.226474,129.14805,,,,,,,,,,,
반여2동상가시장,35.196026,129.129048,,,,,,,,,,,
반여3동골목시장,35.199939,129.132053,,,,,,,,,,,
반여시장,35.197703,129.133427,,,,,,,,,,,
우동종합상가시장,35.17067972,129.138858,,,,,,,,,,,
재송시장,35.186586,129.123676,,,,,,,,,,,
재송한마음시장,35.186075,129.124606,,,,,,,,,,,
좌동재래시장,35.173069,129.174456,,,,,,,,,,,
해운대시장,35.161404,129.162315,,,,,,,,,,,
관문상가시장,35.836544,128.557281,,,,,,,,,,,
관문시장,35.835536,128.559064,,,,,,,,,,,
광덕시장,35.837193,128.582417,,,,,,,,,,,
광안종합시장,35.164422,129.118178,,,,,,,,,,,
남천해변시장,35.139156,129.109041,,,,,,,,,,,
동방시장,35.159124,129.121275,,,,,,,,,,,
망미삼성상가시장,35.168609,129.100826,,,,,,,,,,,
망미새상가시장,35.173616,129.100756,,,,,,,,,,,
망미종합시장,35.171802,129.103563,,,,,,,,,,,
망미중앙시장,35.172368,129.109333,,,,,,,,,,,
민락골목시장,35.15760964,129.123652,,,,,,,,,,,
민락씨랜드시장,35.156974,129.126396,,,,,,,,,,,
민락어패류시장,35.155696,129.124351,,,,,,,,,,,
민락회타운시장,35.15516031,129.118641,,,,,,,,,,,
삼익비치A상가시장,35.143753,129.115366,,,,,,,,,,,
삼익비치B상가시장,35.145793,129.114965,,,,,,,,,,,
세흥시장,35.149407,129.112316,,,,,,,,,,,
수영팔도시장,35.168782,129.116897,,,,,,,,,,,
현대종합상가시장,35.168408,129.120732,,,,,,,,,,,
거성시장,35.190006,129.0682199,,,,,,,,,,,
거제시장,35.181932,129.072793,,,,,,,,,,,
연동시장,35.188843,129.092523,,,,,,,,,,,
연미새시장,35.174126,129.0945796,,,,,,,,,,,
연일시장,35.185572,129.084877,,,,,,,,,,,
연천시장,35.189784,129.098089,,,,,,,,,,,
영남종합시장,35.180775,129.077018,,,,,,,,,,,
남항시장,35.088908,129.042263,,,,,,,,,,,
영도봉래시장,35.092721,129.043282,,,,,,,,,,,
청학시장,35.096604,129.060344,,,,,,,,,,,
남포동건어물도매시장,35.096838,129.034728,,,,,,,,,,,
국제시장,35.10154027,129.028311,,,,,,,,,,,
번개시장,35.875089,128.598131,,,,,,,,,,,
학장반도보라상가,35.137291,128.979172,,,,,,,,,,,
부산광역시건축자재판매협동조합,35.132873,128.965382,,,,,,,,,,,
가락타운상가시장,35.101078,128.957966,,,,,,,,,,,
감천2동시장,35.093879,129.008848,,,,,,,,,,,
감천시장,35.08826986,129.005523,,,,,,,,,,,
괴정골목시장,35.099333,128.993706,,,,,,,,,,,
다대씨-파크,35.055149,128.971973,,,,,,,,,,,
당리시장,35.105467,128.975352,,,,,,,,,,,
사하시장,35.098351,128.986461,,,,,,,,,,,
신평골목시장,35.091083,128.977127,,,,,,,,,,,
신평종합시장,35.091622,128.976709,,,,,,,,,,,
에덴골목시장,35.111148,128.962721,,,,,,,,,,,
에덴시장,35.111484,128.962971,,,,,,,,,,,
장림골목시장,35.080469,128.967677,,,,,,,,,,,
장림시장,35.080932,128.967739,,,,,,,,,,,
하단시장,35.106278,128.969494,,,,,,,,,,,
하단오일상설시장,35.10372011,128.970803,,,,,,,,,,,
대신시장,35.110329,129.019702,,,,,,,,,,,
동대신1동골목시장,35.110308,129.019191,,,,,,,,,,,
서대신1동골목시장,35.108658,129.014433,,,,,,,,,,,
서대신동골목시장,35.110421,129.0173205,,,,,,,,,,,
송남시장,35.07851,129.016831,,,,,,,,,,,
아미시장,35.099652,129.0174795,,,,,,,,,,,
충무동골목시장,35.094282,129.023652,,,,,,,,,,,
충무동새벽시장,35.093294,129.024739,,,,,,,,,,,
충무동해안시장,35.095883,129.025996,,,,,,,,,,,
광안시장,35.160118,129.112467,,,,,,,,,,,
광안어패류시장,35.155591,129.124534,,,,,,,,,,,
서면시장,35.155658,129.058141,,,,,,,,,,,
서면종합시장,35.161915,129.058985,,,,,,,,,,,
서면중앙시장,35.160858,129.063289,,,,,,,,,,,
성곡종합시장,35.174762,129.048078,,,,,,,,,,,
양정시장,35.172765,129.069762,,,,,,,,,,,
양정전통시장,35.173594,129.069435,,,,,,,,,,,
연지시장,35.170905,129.0513996,,,,,,,,,,,
전포놀이터시장,35.15899025,129.067009,,,,,,,,,,,
초읍시장,35.177317,129.052891,,,,,,,,,,,
구포축산물도매시장,35.196195,128.9892003,,,,,,,,,,,
덕천시장,35.211216,129.013403,,,,,,,,,,,
만덕2동제일상가시장,35.202239,129.036129,,,,,,,,,,,
만덕시장,35.214497,129.035371,,,,,,,,,,,
정이있는구포시장,35.208355,129.003854,,,,,,,,,,,
감전시장,35.156141,128.984607,,,,,,,,,,,
감전제일상가시장,35.156325,128.984548,,,,,,,,,,,
구덕대림상가,35.13532021,128.992241,,,,,,,,,,,
르네시떼시장,35.164336,128.977716,,,,,,,,,,,
모라전통시장,35.187631,128.987437,,,,,,,,,,,
복이있는덕포시장,35.171281,128.982255,,,,,,,,,,,
부산산업용재유통상가,35.153279,128.9810797,,,,,,,,,,,
부산산업용품상협동조합,35.159755,128.980434,,,,,,,,,,,
부산새벽시장,35.154143,128.982432,,,,,,,,,,,
사상시장,35.166657,128.985508,,,,,,,,,,,
영해종합시장,35.140709,128.987964,,,,,,,,,,,
우신종합상가,35.183113,128.991282,,,,,,,,,,,
주례럭키종합상가,35.148752,129.00292,,,,,,,,,,,
주례현대무지개상가,35.144964,129.004986,,,,,,,,,,,
초량전통시장,35.118039,129.039667,,,,,,,,,,,
범일골목시장,35.141825,129.053019,,,,,,,,,,,
국민시장,35.198401,129.058233,,,,,,,,,,,
금성상가시장,35.208176,129.071943,,,,,,,,,,,
동래시장,35.203809,129.085939,,,,,,,,,,,
명장시장,35.204013,129.107484,,,,,,,,,,,
사직시장,35.200056,129.062319,,,,,,,,,,,
서원시장,35.200388,129.099019,,,,,,,,,,,
수안인정시장,35.201496,129.0865801,,,,,,,,,,,
안락상가시장,35.195498,129.103316,,,,,,,,,,,
온천인정시장,35.223114,129.083149,,,,,,,,,,,
충렬상가시장,35.198096,129.109954,,,,,,,,,,,
가야벽산상가,35.146613,129.026989,,,,,,,,,,,
개금골목시장,35.151833,129.024794,,,,,,,,,,,
개금큰시장,35.148534,129.017886,,,,,,,,,,,
골드테마거리,35.141939,129.059775,,,,,,,,,,,
국제상가,35.168441,129.028207,,,,,,,,,,,
당감골목시장,35.163283,129.0408703,,,,,,,,,,,
당감새시장,35.165061,129.0421399,,,,,,,,,,,
당감시장,35.163911,129.041836,,,,,,,,,,,
동평새시장,35.166667,129.040887,,,,,,,,,,,
부산전자종합시장,35.163752,129.062435,,,,,,,,,,,
부산평화시장,35.141697,129.060675,,,,,,,,,,,
부전기장골목시장,35.16220022,129.061239,,,,,,,,,,,
부전농수산물새벽시장,35.162253,129.058302,,,,,,,,,,,
부전상가,35.160346,129.059551,,,,,,,,,,,
부전시장,35.163234,129.060906,,,,,,,,,,,
부전인삼시장,35.163234,129.060906,,,,,,,,,,,
태능엔터피아,37.599223,127.077505,,,,,,,,,,,
명지시장,35.112541,128.931598,,,,,,,,,,,
구서오시게시장,35.247358,129.089774,,,,,,,,,,,
금사제일상가시장,35.220451,129.112571,,,,,,,,,,,
부곡상가시장,35.225485,129.091517,,,,,,,,,,,
서동시장,35.216412,129.102359,,,,,,,,,,,
서동전통골목시장,35.215284,129.102246,,,,,,,,,,,
서동향토시장,35.215937,129.103355,,,,,,,,,,,
장성시장,35.237442,129.085557,,,,,,,,,,,
장전상가시장,35.23084994,129.086107,,,,,,,,,,,
기장시장,35.24406017,129.215363,,,,,,,,,,,
감만시장,35.116344,129.082161,,,,,,,,,,,
남광시장,35.123923,129.088718,,,,,,,,,,,
대연시장,35.13567985,129.088421,,,,,,,,,,,
동성하이타운시장,35.133571,129.087532,,,,,,,,,,,
못골골목시장,35.135861,129.089637,,,,,,,,,,,
새감만종합시장,35.116334,129.081711,,,,,,,,,,,
용호1동골목시장,35.12436007,129.110204,,,,,,,,,,,
용호골목시장,35.116407,129.1114604,,,,,,,,,,,
용호삼성시장,35.123899,129.110538,,,,,,,,,,,
용호시장,35.114912,129.112773,,,,,,,,,,,
우암골목시장,35.126166,129.070923,,,,,,,,,,,
부산자유시장,35.140974,129.0610402,,,,,,,,,,,
부산남문시장,35.135925,129.058687,,,,,,,,,,,
부산진시장,35.136423,129.058836,,,,,,,,,,,
성북시장,35.138733,129.048753,,,,,,,,,,,
수정시장,35.128258,129.046392,,,,,,,,,,,
수정전통시장,35.13011972,129.0463697,,,,,,,,,,,
초량상가시장,35.118907,129.039981,,,,,,,,,,,
광희패션몰,37.568673,127.011916,,,,,,,,,,,
남대문시장,37.559186,126.977654,,,,,,,,,,,
남평화시장,37.569171,127.010836,,,,,,,,,,,
대림상가,37.566931,127.000409,,,,,,,,,,,
동평화시장,37.569357,127.013791,,,,,,,,,,,
동화상가,37.568605,127.006912,,,,,,,,,,,
방산종합시장,37.568724,127.000806,,,,,,,,,,,
에리어식스(벨포스트),37.568142,127.011974,,,,,,,,,,,
삼익패션타운,37.560435,126.978957,,,,,,,,,,,
서울중앙시장,37.567383,127.019763,,,,,,,,,,,
숭례문수입상가,37.559372,126.976203,,,,,,,,,,,
신중부시장,37.565534,126.999406,,,,,,,,,,,
신중앙시장,37.567383,127.019763,,,,,,,,,,,
신평화패션타운,37.569454,127.0110696,,,,,,,,,,,
약수시장,37.554034,127.010765,,,,,,,,,,,
자유상가,37.560959,126.979767,,,,,,,,,,,
제일평화시장,37.568514,127.011402,,,,,,,,,,,
청평화시장,37.569467,127.014936,,,,,,,,,,,
통일상가,37.568908,127.006316,,,,,,,,,,,
평화시장,37.569426,127.008048,,,,,,,,,,,
황학시장,37.567383,127.019763,,,,,,,,,,,
동성타워프라자,37.608028,127.097205,,,,,,,,,,,
동원전통종합시장,37.589824,127.092107,,,,,,,,,,,
면목골목시장,37.577485,127.084436,,,,,,,,,,,
사가정시장,37.581081,127.089379,,,,,,,,,,,
신아타운,37.606453,127.094707,,,,,,,,,,,
우림골목시장,37.596772,127.098272,,,,,,,,,,,
중랑교종합상가,37.592948,127.077115,,,,,,,,,,,
중랑동부시장(동부골목시장),37.592442,127.076325,,,,,,,,,,,
석수시장,37.4128602,126.907998,,,,,,,,,,,
안양관양시장,37.405225,126.95931,,,,,,,,,,,
안양남부시장,37.395935,126.924953,,,,,,,,,,,
안양중앙인정시장,37.396485,126.919569,,,,,,,,,,,
안양호계종합시장,37.372536,126.9592998,,,,,,,,,,,
중앙시장,37.397568,126.919668,,,,,,,,,,,
양수리전통시장(양평양수리시장),37.545073,127.319795,,,,,,,,,,,
양평물맑은시장,37.490932,127.492562,,,,,,,,,,,
용문천년시장,37.483963,127.594756,,,,,,,,,,,
전곡재래시장,38.027062,127.068174,,,,,,,,,,,
오색시장,37.151324,127.070941,,,,,,,,,,,
용인중앙시장,37.236714,127.207858,,,,,,,,,,,
죽전로데오상점가전통시장,37.328767,127.108059,,,,,,,,,,,
부곡도깨비시장,37.319466,126.950706,,,,,,,,,,,
의정부시장,37.739451,127.051183,,,,,,,,,,,
의정부제일시장,37.740127,127.050068,,,,,,,,,,,
의정부청과야채시장,37.73855004,127.052708,,,,,,,,,,,
관고전통시장,37.28081972,127.440361,,,,,,,,,,,
사기막골도자기시장,37.294823,127.411979,,,,,,,,,,,
장호원전통시장,37.118088,127.631251,,,,,,,,,,,
광탄시장,37.781461,126.848476,,,,,,,,,,,
금촌명동로시장,37.763307,126.773343,,,,,,,,,,,
금촌문화로시장,37.762248,126.774878,,,,,,,,,,,
금촌전통시장,37.762615,126.773877,,,,,,,,,,,
문산자유시장,37.856727,126.783942,,,,,,,,,,,
봉일천시장,37.743531,126.807848,,,,,,,,,,,
적성전통시장,37.954609,126.918669,,,,,,,,,,,
남문패션1번가시장,37.275626,127.018108,,,,,,,,,,,
매산시장,37.264571,127.003354,,,,,,,,,,,
못골종합시장,37.276028,127.020773,,,,,,,,,,,
미나리광시장,37.277277,127.019639,,,,,,,,,,,
북수원시장,37.307027,126.992167,,,,,,,,,,,
시민상가시장,37.276684,127.017985,,,,,,,,,,,
역전시장,37.266302,127.002339,,,,,,,,,,,
연무시장,37.29396045,127.025977,,,,,,,,,,,
영동시장,37.276816,127.0186603,,,,,,,,,,,
장안문거북시장,37.293149,127.013966,,,,,,,,,,,
정자시장,37.29069027,127.000881,,,,,,,,,,,
조원시장,37.300784,127.015339,,,,,,,,,,,
지동시장,37.277883,127.019628,,,,,,,,,,,
팔달문시장,37.276856,127.017886,,,,,,,,,,,
화서시장,37.278578,127.0020898,,,,,,,,,,,
시흥삼미시장,37.440407,126.7838201,,,,,,,,,,,
정왕시장,37.345806,126.748569,,,,,,,,,,,
도일시장,37.339515,126.784076,,,,,,,,,,,
스타프라자전통시장,37.320816,126.844722,,,,,,,,,,,
신안코아,37.295016,126.864574,,,,,,,,,,,
신안프라자전통시장,37.296475,126.865821,,,,,,,,,,,
안산시시민시장,37.325372,126.805088,,,,,,,,,,,
월드프라자,37.300555,126.866449,,,,,,,,,,,
안성맞춤시장,37.006631,127.270353,,,,,,,,,,,
일죽시장,37.093369,127.478422,,,,,,,,,,,
죽산시장,37.075988,127.423389,,,,,,,,,,,
중앙시장,37.006562,127.268796,,,,,,,,,,,
박달시장,37.404646,126.909619,,,,,,,,,,,
금호행복시장(금호시장),37.376661,127.116239,,,,,,,,,,,
단대전통시장,37.44434033,127.158328,,,,,,,,,,,
돌고래시장,37.371531,127.122168,,,,,,,,,,,
동신종합시장,37.370623,127.122966,,,,,,,,,,,
모란종합시장,37.43033963,127.128887,,,,,,,,,,,
미래그린시장,37.373416,127.138036,,,,,,,,,,,
미래타운제2종합시장,37.372255,127.138871,,,,,,,,,,,
분당우성시장,37.378182,127.132382,,,,,,,,,,,
분당종합시장,37.36718028,127.126749,,,,,,,,,,,
상대원시장,37.435979,127.158772,,,,,,,,,,,
성남남한산성시장(은행골목시장),37.456955,127.164434,,,,,,,,,,,
야탑에이스코아시장,37.409503,127.125979,,,,,,,,,,,
은행시장,37.457586,127.164485,,,,,,,,,,,
코끼리시장,37.373112,127.120422,,,,,,,,,,,
코코프라자시장,37.385857,127.124037,,,,,,,,,,,
하대원공설시장,37.427466,127.142237,,,,,,,,,,,
현대시장,37.441701,127.131979,,,,,,,,,,,
현대시장(분당),37.379706,127.13017,,,,,,,,,,,
현대프라자시장,37.369986,127.123663,,,,,,,,,,,
모란가축시장,37.43033963,127.128887,,,,,,,,,,,
미금현대벤처빌시장,37.349284,127.111774,,,,,,,,,,,
범한프라자시장,37.371629,127.139444,,,,,,,,,,,
청구문화시장,37.376661,127.116239,,,,,,,,,,,
구매탄시장,37.272603,127.041922,,,,,,,,,,,
구천동공구상가,37.272122,127.017359,,,,,,,,,,,
권선종합시장,37.256099,127.0245796,,,,,,,,,,,
남문로데오시장,37.274637,127.015525,,,,,,,,,,,
서정리시장,37.057844,127.055923,,,,,,,,,,,
구리전통시장,37.599543,127.139904,,,,,,,,,,,
군포역전시장,37.354074,126.946888,,,,,,,,,,,
산본시장,37.370164,126.93853,,,,,,,,,,,
양곡시장,37.654464,126.623808,,,,,,,,,,,
양곡오라니장터시장,37.655373,126.623525,,,,,,,,,,,
통진시장,37.691295,126.599701,,,,,,,,,,,
남양주장현 전통시장,37.717616,127.180891,,,,,,,,,,,
동두천제일시장,37.905174,127.052223,,,,,,,,,,,
동두천큰시장,37.900491,127.052074,,,,,,,,,,,
세아프라자상가,37.900719,127.050596,,,,,,,,,,,
중앙시장,37.906902,127.0537404,,,,,,,,,,,
강남시장,37.507222,126.781306,,,,,,,,,,,
고리울동굴시장,37.525844,126.8226996,,,,,,,,,,,
부천상동시장,37.492357,126.764271,,,,,,,,,,,
부천자유시장,37.484111,126.779942,,,,,,,,,,,
부천제일시장,37.527927,126.808958,,,,,,,,,,,
중동사랑시장(부천중동시장),37.49490038,126.764334,,,,,,,,,,,
부천한신시장,37.47482997,126.799034,,,,,,,,,,,
소사종합시장,37.479115,126.794234,,,,,,,,,,,
신흥시장,37.515556,126.77102,,,,,,,,,,,
역곡남부시장,37.48252978,126.811538,,,,,,,,,,,
역곡상상시장(역곡북부시장),37.487578,126.811894,,,,,,,,,,,
오정시장,37.525974,126.785705,,,,,,,,,,,
원미부흥시장,37.492193,126.789969,,,,,,,,,,,
원미종합시장,37.493682,126.790178,,,,,,,,,,,
원종종합시장,37.519712,126.805569,,,,,,,,,,,
원종중앙시장,37.525065,126.802317,,,,,,,,,,,
조공시장,37.480408,126.805245,,,,,,,,,,,
덕하시장(덕하공설시장),35.491126,129.305477,,,,,,,,,,,
봉계공설시장,35.713382,129.199174,,,,,,,,,,,
언양공설시장,35.562624,129.126317,,,,,,,,,,,
언양종합상가시장,35.5637001,129.125696,,,,,,,,,,,
구역전시장,35.55730008,129.328413,,,,,,,,,,,
구역전전통시장,35.555907,129.327959,,,,,,,,,,,
반구시장,35.558061,129.344242,,,,,,,,,,,
병영시장,35.570559,129.346293,,,,,,,,,,,
서동시장,35.581341,129.346979,,,,,,,,,,,
선우시장,35.57119003,129.3421097,,,,,,,,,,,
성남프라자,35.554516,129.31755,,,,,,,,,,,
신울산종합시장,35.561238,129.337362,,,,,,,,,,,
옥골시장,35.555238,129.322959,,,,,,,,,,,
울산시장,35.555468,129.328409,,,,,,,,,,,
중앙전통시장,35.555183,129.322294,,,,,,,,,,,
태화종합시장,35.556233,129.307356,,,,,,,,,,,
학성새벽시장,35.556433,129.332944,,,,,,,,,,,
우정전통시장,35.555008,129.310424,,,,,,,,,,,
가평잣고을전통시장,37.830115,127.513822,,,,,,,,,,,
능곡시장,37.621351,126.820779,,,,,,,,,,,
덕이동패션1번지,37.693021,126.755787,,,,,,,,,,,
원당시장,37.656281,126.837253,,,,,,,,,,,
일산시장,37.685623,126.770826,,,,,,,,,,,
과천새서울프라자시장,37.426827,126.992556,,,,,,,,,,,
제일쇼핑시장,37.427328,126.992998,,,,,,,,,,,
광명새마을시장,37.473654,126.8513997,,,,,,,,,,,
광명전통시장,37.479948,126.856165,,,,,,,,,,,
경안시장,37.41005973,127.256769,,,,,,,,,,,
송강시장,36.43519975,127.386608,,,,,,,,,,,
문창전통시장,36.315511,127.4381799,,,,,,,,,,,
부사전통시장,36.314141,127.435374,,,,,,,,,,,
산성전통시장,36.306558,127.387126,,,,,,,,,,,
오류전통시장,36.321959,127.407951,,,,,,,,,,,
용두전통시장,36.323407,127.414567,,,,,,,,,,,
유천전통시장,36.317211,127.3954896,,,,,,,,,,,
태평전통시장,36.325945,127.397694,,,,,,,,,,,
(주)신정시장,35.542338,129.3102795,,,,,,,,,,,
(주)야음시장,35.524057,129.331373,,,,,,,,,,,
수암상가시장,35.526976,129.320765,,,,,,,,,,,
수암종합시장,35.527474,129.320845,,,,,,,,,,,
신정상가시장,35.543007,129.310117,,,,,,,,,,,
신정평화시장,35.53834025,129.303536,,,,,,,,,,,
야음상가시장,35.523615,129.331864,,,,,,,,,,,
울산번개시장,35.520238,129.336771,,,,,,,,,,,
울산산업공구월드,35.535785,129.342638,,,,,,,,,,,
남목전통시장,35.542724,129.427387,,,,,,,,,,,
대송농수산물시장,35.499209,129.420649,,,,,,,,,,,
동울산종합시장,35.508831,129.425429,,,,,,,,,,,
월봉시장,35.509669,129.426029,,,,,,,,,,,
염포시장(신전시장),35.535526,129.390746,,,,,,,,,,,
호계공설시장,35.623616,129.355738,,,,,,,,,,,
화봉시장(화봉종합시장),35.58881997,129.365826,,,,,,,,,,,
곡천공설시장,35.465618,129.2096999,,,,,,,,,,,
남창옹기종기시장,35.416687,129.282781,,,,,,,,,,,
덕신1차시장,35.435244,129.309352,,,,,,,,,,,
덕신2차시장,35.429349,129.310023,,,,,,,,,,,
양동산업용품시장,35.151171,126.906622,,,,,,,,,,,
양동수산전통시장,35.153235,126.90166,,,,,,,,,,,
화정동서부시장,35.153041,126.879282,,,,,,,,,,,
법동시장,36.366225,127.431573,,,,,,,,,,,
송촌시장,36.364638,127.439864,,,,,,,,,,,
신탄진시장,36.449153,127.426507,,,,,,,,,,,
중리시장,36.36558954,127.426389,,,,,,,,,,,
가양시장,36.346263,127.443199,,,,,,,,,,,
대전도매시장,36.330202,127.432919,,,,,,,,,,,
대전상가시장,36.321788,127.436652,,,,,,,,,,,
신도시장,36.349521,127.447114,,,,,,,,,,,
신중앙시장,36.327297,127.433635,,,,,,,,,,,
용운시장,36.327816,127.460585,,,,,,,,,,,
인동시장,36.322532,127.435913,,,,,,,,,,,
자유도매시장,36.329237,127.432006,,,,,,,,,,,
전통중앙도매상가,36.329826,127.433704,,,,,,,,,,,
중앙도매시장,36.32956033,127.433185,,,,,,,,,,,
중앙메가프라자,36.3267299,127.433958,,,,,,,,,,,
중앙상가시장,36.329615,127.431126,,,,,,,,,,,
중앙종합시장,36.328592,127.432202,,,,,,,,,,,
도마큰시장,36.315806,127.381367,,,,,,,,,,,
한민시장,36.334621,127.384001,,,,,,,,,,,
정서진중앙시장,37.518572,126.675938,,,,,,,,,,,
연수구옥련시장,37.424622,126.64683,,,,,,,,,,,
연수송도역전시장,37.426458,126.657694,,,,,,,,,,,
신포시장,37.471462,126.627812,,,,,,,,,,,
신흥시장,37.46606007,126.636624,,,,,,,,,,,
인천종합어시장,37.454136,126.607164,,,,,,,,,,,
1913송정역시장(송정역전매일시장),35.135564,126.791534,,,,,,,,,,,
비아5일시장,35.221358,126.825266,,,,,,,,,,,
송정5일시장,35.13707956,126.796906,,,,,,,,,,,
송정매일시장,35.137449,126.796845,,,,,,,,,,,
우산매일시장,35.165248,126.801486,,,,,,,,,,,
월곡시장,35.171297,126.809648,,,,,,,,,,,
무등시장,35.135926,126.894542,,,,,,,,,,,
봉선시장,35.129051,126.910002,,,,,,,,,,,
남광주시장,35.13929961,126.9208104,,,,,,,,,,,
남광주해뜨는시장,35.138963,126.921252,,,,,,,,,,,
대인시장,35.154013,126.916534,,,,,,,,,,,
산수시장,35.153487,126.929733,,,,,,,,,,,
동부시장,35.173886,126.916337,,,,,,,,,,,
두암시장,35.171578,126.9293897,,,,,,,,,,,
말바우시장,35.172978,126.921361,,,,,,,,,,,
운암시장,35.173373,126.882004,,,,,,,,,,,
광주양동시장,35.153907,126.902558,,,,,,,,,,,
양동건어물시장,35.153168,126.9033302,,,,,,,,,,,
양동경열로시장,35.153668,126.900847,,,,,,,,,,,
양동닭전길시장,35.152819,126.903996,,,,,,,,,,,
양동복개상가,35.153599,126.903928,,,,,,,,,,,
월봉시장,35.4949852,129.4248536,,,,,,,,,,,
인천남부종합시장,37.447375,126.678396,,,,,,,,,,,
인천용남시장,37.451898,126.665849,,,,,,,,,,,
토지금고시장,37.45154989,126.637802,,,,,,,,,,,
학익시장,37.443515,126.664965,,,,,,,,,,,
간석자유시장,37.463884,126.715343,,,,,,,,,,,
구월도매전통시장,37.443246,126.705221,,,,,,,,,,,
구월시장,37.452867,126.720496,,,,,,,,,,,
만수시장,37.459983,126.732151,,,,,,,,,,,
인천모래내전통시장,37.453836,126.721334,,,,,,,,,,,
장승백이전통시장,37.446564,126.735227,,,,,,,,,,,
동부시장,37.476998,126.645248,,,,,,,,,,,
송림공구상가,37.483591,126.662211,,,,,,,,,,,
송현시장,37.476161,126.634643,,,,,,,,,,,
인천산업유통사업협동조합,37.484828,126.654796,,,,,,,,,,,
중앙시장,37.475353,126.633345,,,,,,,,,,,
현대시장,37.477487,126.646124,,,,,,,,,,,
일신시장(부일종합시장),37.48472019,126.743279,,,,,,,,,,,
부평깡시장,37.497888,126.726541,,,,,,,,,,,
부평문화의거리,37.494082,126.725005,,,,,,,,,,,
부평종합시장,37.496498,126.726619,,,,,,,,,,,
십정종합시장(열우물전통시장),37.473402,126.695504,,,,,,,,,,,
진흥종합시장,37.496947,126.725706,,,,,,,,,,,
가좌시장,37.494139,126.683398,,,,,,,,,,,
신거북시장,37.503286,126.672989,,,,,,,,,,,
인천강남시장,37.511221,126.671995,,,,,,,,,,,
인천축산물시장,37.478993,126.688457,,,,,,,,,,,
고흥전통시장,34.60799792,127.2858602,,,,,,,,,,,
녹동전통시장,34.52795492,127.1374082,,,,,,,,,,,
도화전통시장,34.50993323,127.3221312,,,,,,,,,,,
과역전통시장,34.679021,127.3626871,,,,,,,,,,,
동강전통시장,34.78056847,127.334821,,,,,,,,,,,
화원시장,35.80125417,128.4997367,,,,,,,,,,,
현풍백년도깨비시장,35.694751,128.442243,,,,,,,,,,,
논공시장,35.774035,128.4216852,,,,,,,,,,,
구지시장,35.657765,128.412578,,,,,,,,,,,
논공중앙시장,35.72838744,128.446519,,,,,,,,,,,
서문시장2지구종합상가,35.868815,128.579531,,,,,,,,,,,
서문시장5지구,35.868085,128.578464,,,,,,,,,,,
서문시장건해산물상가,35.868143,128.579488,,,,,,,,,,,
서문시장제1지구직물시장,35.869394,128.579831,,,,,,,,,,,
서문시장제1지구포목시장,35.869394,128.579831,,,,,,,,,,,
약령시장,35.868127,128.5899204,,,,,,,,,,,
염매시장,35.866868,128.5916802,,,,,,,,,,,
서문시장4지구종합대체상가(베네시움),35.86673048,128.582723,,,,,,,,,,,
강화중앙시장(a동b동),37.746855,126.483862,,,,,,,,,,,
강화터미널상가,37.739777,126.490407,,,,,,,,,,,
강화풍물시장,37.741422,126.492869,,,,,,,,,,,
계산시장,37.5392795,126.724853,,,,,,,,,,,
계양산전통시장,37.548459,126.739243,,,,,,,,,,,
작전시장,37.532487,126.724325,,,,,,,,,,,
석바위시장,37.459171,126.691617,,,,,,,,,,,
신기시장,37.446898,126.678282,,,,,,,,,,,
용현시장,37.457561,126.650374,,,,,,,,,,,
곡성기차마을전통시장,35.279769,127.298438,,,,,,,,,,,
석곡전통시장,35.132944,127.254094,,,,,,,,,,,
옥과5일시장,35.275903,127.137953,,,,,,,,,,,
광양5일시장,34.971161,127.590453,,,,,,,,,,,
광양매일시장,34.97580974,127.585157,,,,,,,,,,,
광영상설시장,34.961446,127.7203697,,,,,,,,,,,
옥곡5일시장,34.988503,127.7002397,,,,,,,,,,,
중마시장,34.938203,127.6988496,,,,,,,,,,,
구례5일시장,35.210152,127.470081,,,,,,,,,,,
구례상설시장,35.209624,127.465757,,,,,,,,,,,
나주목사고을시장,35.036246,126.723767,,,,,,,,,,,
남평5일시장,35.045822,126.8415403,,,,,,,,,,,
다시5일시장,35.016104,126.635774,,,,,,,,,,,
영산포풍물시장,34.99199963,126.707267,,,,,,,,,,,
창평전통시장,35.238107,127.014907,,,,,,,,,,,
동부시장,34.804607,126.393455,,,,,,,,,,,
목포종합수산시장,34.78777034,126.389873,,,,,,,,,,,
신중앙시장,34.810255,126.377524,,,,,,,,,,,
자유시장,34.792964,126.403068,,,,,,,,,,,
중앙먹통시장,34.794046,126.381791,,,,,,,,,,,
청호시장,34.815381,126.424593,,,,,,,,,,,
항동시장,34.786009,126.385612,,,,,,,,,,,
무안전통시장,34.993487,126.472427,,,,,,,,,,,
일로전통시장,34.847535,126.494335,,,,,,,,,,,
녹차골보성향토시장(보성읍5일시장),34.765649,127.077232,,,,,,,,,,,
벌교5일시장,34.844938,127.345079,,,,,,,,,,,
벌교매일시장,34.843015,127.345993,,,,,,,,,,,
남양시장,37.20953077,126.8172094,,,,,,,,,,,
발안만세시장,37.13141607,126.9094648,,,,,,,,,,,
사강시장,37.21339383,126.7369184,,,,,,,,,,,
조암시장,37.08350022,126.818451,,,,,,,,,,,
오수시장,35.538438,127.326652,,,,,,,,,,,
임실시장,35.614451,127.282711,,,,,,,,,,,
산서시장,35.584495,127.395889,,,,,,,,,,,
장계시장,35.729438,127.582272,,,,,,,,,,,
장수시장,35.649102,127.517472,,,,,,,,,,,
모래내시장(전주),35.833567,127.143872,,,,,,,,,,,
전주남부시장,35.812786,127.147537,,,,,,,,,,,
전주신중앙시장(신중앙시장),35.824123,127.143482,,,,,,,,,,,
전주중앙상가,35.825226,127.142458,,,,,,,,,,,
서부시장상점가(서부시장 통합),35.805237,127.126663,,,,,,,,,,,
샘고을시장,35.562888,126.855106,,,,,,,,,,,
신태인시장,35.684721,126.887862,,,,,,,,,,,
정읍연지시장(정읍제2시장),35.573026,126.8469003,,,,,,,,,,,
진안고원시장,35.792633,127.429424,,,,,,,,,,,
강진읍시장,34.640343,126.774116,,,,,,,,,,,
마량5일시장,34.450956,126.816582,,,,,,,,,,,
병영5일시장,34.713802,126.815555,,,,,,,,,,,
고흥전통시장,34.608357,127.2866005,,,,,,,,,,,
과역전통시장,34.679452,127.3622598,,,,,,,,,,,
녹동전통시장,34.527877,127.138337,,,,,,,,,,,
도화전통시장,34.509792,127.321881,,,,,,,,,,,
동강전통시장,34.780568,127.334842,,,,,,,,,,,
남원공설시장,35.404617,127.375868,,,,,,,,,,,
남원인월시장,35.461532,127.602092,,,,,,,,,,,
용남시장,35.407105,127.376766,,,,,,,,,,,
무주시장(반딧불장터),36.004655,127.653474,,,,,,,,,,,
무풍시장(대덕산장터),35.969453,127.848794,,,,,,,,,,,
설천시장(삼도봉장터),36.009905,127.788019,,,,,,,,,,,
안성시장(덕유산장터),35.866567,127.653756,,,,,,,,,,,
부안상설시장,35.727115,126.732962,,,,,,,,,,,
줄포시장,35.587601,126.676855,,,,,,,,,,,
동계시장,35.439542,127.239806,,,,,,,,,,,
복흥시장,35.431843,126.932756,,,,,,,,,,,
순창시장,35.37186989,127.145059,,,,,,,,,,,
고산미소시장,35.974075,127.205412,,,,,,,,,,,
봉동시장,35.938722,127.167071,,,,,,,,,,,
삼례시장,35.910613,127.073586,,,,,,,,,,,
매일시장,35.940398,126.949674,,,,,,,,,,,
북부시장,35.948222,126.956591,,,,,,,,,,,
서동시장,35.942705,126.950551,,,,,,,,,,,
익산 구시장,35.93153044,126.952341,,,,,,,,,,,
익산금마시장,35.992183,127.053425,,,,,,,,,,,
익산남부시장,35.931945,126.953379,,,,,,,,,,,
익산장(익산북부장),35.951228,126.956625,,,,,,,,,,,
중앙시장,35.94206031,126.949733,,,,,,,,,,,
함열시장,36.080829,126.958522,,,,,,,,,,,
황등시장,35.99888044,126.952476,,,,,,,,,,,
강진시장,35.529069,127.161038,,,,,,,,,,,
관촌시장,35.678781,127.2676801,,,,,,,,,,,
성환이화시장,36.918106,127.130913,,,,,,,,,,,
천안역전시장,36.809908,127.148908,,,,,,,,,,,
정산시장,36.410594,126.948018,,,,,,,,,,,
청양전통시장,36.450487,126.801846,,,,,,,,,,,
안면도수산시장(안면도장터),36.516356,126.346008,,,,,,,,,,,
태안서부시장,36.753193,126.296659,,,,,,,,,,,
태안동부시장(태안특산물전통시장),36.752243,126.299027,,,,,,,,,,,
갈산정기시장,36.603698,126.550554,,,,,,,,,,,
광천전통시장,36.499838,126.625246,,,,,,,,,,,
홍성상설시장,36.599738,126.663709,,,,,,,,,,,
홍성전통시장,36.602151,126.668023,,,,,,,,,,,
고창전통시장,35.432666,126.698771,,,,,,,,,,,
대산전통시장,35.340107,126.598979,,,,,,,,,,,
무장전통시장,35.414428,126.560604,,,,,,,,,,,
상하전통시장,35.44408963,126.491753,,,,,,,,,,,
해리전통시장,35.458656,126.542204,,,,,,,,,,,
흥덕전통시장,35.52059009,126.7002295,,,,,,,,,,,
군산공설시장,35.983171,126.720325,,,,,,,,,,,
군산수산물종합센터,35.993985,126.704742,,,,,,,,,,,
군산신영시장,35.985615,126.72012,,,,,,,,,,,
군산주공시장,35.965773,126.6954398,,,,,,,,,,,
대야전통시장,35.944855,126.816085,,,,,,,,,,,
명산시장,35.983736,126.709545,,,,,,,,,,,
역전종합시장,35.980989,126.720371,,,,,,,,,,,
금만시장,35.800143,126.8864204,,,,,,,,,,,
김제전통시장,35.801621,126.883719,,,,,,,,,,,
역전시장,35.79317041,126.901597,,,,,,,,,,,
원평공설시장(김제원평시장),35.714064,126.994732,,,,,,,,,,,
연산전통시장,36.21626966,127.216493,,,,,,,,,,,
화지중앙시장,36.208588,127.085011,,,,,,,,,,,
당진전통시장,36.889931,126.629607,,,,,,,,,,,
합덕전통시장,36.806166,126.7719699,,,,,,,,,,,
동부시장,36.349364,126.597,,,,,,,,,,,
보령중앙시장,36.351088,126.5932002,,,,,,,,,,,
보령한내시장,36.349626,126.595826,,,,,,,,,,,
현대시장(현대상가시장),36.348907,126.5969396,,,,,,,,,,,
부여시장,36.281494,126.907558,,,,,,,,,,,
부여중앙시장,36.281919,126.912189,,,,,,,,,,,
홍산시장,36.213933,126.757954,,,,,,,,,,,
대산종합시장,36.938005,126.433943,,,,,,,,,,,
서산동부전통시장(동부시장),36.781825,126.456447,,,,,,,,,,,
해미시장,36.711134,126.545568,,,,,,,,,,,
해미종합시장,36.711297,126.546494,,,,,,,,,,,
서천특화시장,36.075021,126.6868202,,,,,,,,,,,
장항전통시장,36.015561,126.694572,,,,,,,,,,,
둔포전통시장(둔포시장),36.929479,127.0360401,,,,,,,,,,,
온양온천시장(온양전통시장),36.783292,127.004232,,,,,,,,,,,
고덕시장,36.743926,126.705214,,,,,,,,,,,
삽교시장,36.687257,126.741287,,,,,,,,,,,
역전시장,36.687025,126.829854,,,,,,,,,,,
예산상설시장,36.677235,126.849451,,,,,,,,,,,
예산시장,36.677235,126.849451,,,,,,,,,,,
천안중앙시장(구 남산중앙시장),36.800721,127.149302,,,,,,,,,,,
병천시장,36.762422,127.298161,,,,,,,,,,,
성정시장,36.812666,127.139212,,,,,,,,,,,
교동시장,34.73908203,127.7299176,,,,,,,,,,,
해안로건어물상가시장,34.73953206,127.734506,,,,,,,,,,,
중앙선어시장,34.73913771,127.7370114,,,,,,,,,,,
도깨비시장,34.7633188,127.656583,,,,,,,,,,,
여수진남상가,34.74151572,127.733081,,,,,,,,,,,
흥국상가,34.76200819,127.6693332,,,,,,,,,,,
청주사창시장,36.633609,127.465298,,,,,,,,,,,
관아골상가,36.970122,127.935121,,,,,,,,,,,
충주농산물종합시장(중앙청과시장),37.003996,127.923084,,,,,,,,,,,
목행시장,37.013951,127.917328,,,,,,,,,,,
무학시장,36.974598,127.927263,,,,,,,,,,,
연원시장,36.989291,127.934803,,,,,,,,,,,
중앙어울림시장,36.971893,127.933612,,,,,,,,,,,
충주옹달샘시장,36.964688,127.932505,,,,,,,,,,,
충주자유시장,36.973931,127.930671,,,,,,,,,,,
"성서중심시장(성서시장,문화의거리 통합)",36.971337,127.932395,,,,,,,,,,,
산성시장활성화구역,36.454882,127.125678,,,,,,,,,,,
유구시장,36.552702,126.951856,,,,,,,,,,,
금산국제인삼시장(금산인삼국제시장),36.101918,127.4983403,,,,,,,,,,,
금산수삼센타,36.100102,127.4964497,,,,,,,,,,,
금산금빛시장(금산시장),36.099512,127.490976,,,,,,,,,,,
금산약초시장,36.100381,127.495473,,,,,,,,,,,
금산인삼쇼핑센타,36.101507,127.498959,,,,,,,,,,,
중부프라자,36.104534,127.491021,,,,,,,,,,,
강경대흥시장,36.155979,127.013675,,,,,,,,,,,
강경젓갈시장,36.157556,127.009806,,,,,,,,,,,
연무안심시장,36.130065,127.098252,,,,,,,,,,,
보성매일시장,34.76817999,127.080619,,,,,,,,,,,
대소시장,36.966545,127.485019,,,,,,,,,,,
삼성시장,37.018009,127.499198,,,,,,,,,,,
무극시장,36.992678,127.596004,,,,,,,,,,,
음성시장,36.938166,127.692127,,,,,,,,,,,
내토전통시장,37.137354,128.2124103,,,,,,,,,,,
덕산면전통시장,36.908585,128.1679799,,,,,,,,,,,
동문전통시장,37.138512,128.213525,,,,,,,,,,,
박달재전통시장,37.138549,128.021779,,,,,,,,,,,
제천약초시장,37.127889,128.219591,,,,,,,,,,,
제천역전한마음시장,37.129456,128.206909,,,,,,,,,,,
제천중앙시장,37.136628,128.2113,,,,,,,,,,,
증평장뜰재래시장,36.783392,127.5829505,,,,,,,,,,,
운수대통 생거진천전통시장,36.860708,127.451324,,,,,,,,,,,
진천중앙시장,36.856858,127.442374,,,,,,,,,,,
가경터미널시장,36.627361,127.435025,,,,,,,,,,,
밤고개자연시장(구 내덕자연시장),36.662415,127.488646,,,,,,,,,,,
내수전통시장,36.726267,127.536008,,,,,,,,,,,
복대가경시장,36.629518,127.443263,,,,,,,,,,,
북부시장,36.647973,127.486221,,,,,,,,,,,
사직시장,36.636143,127.476868,,,,,,,,,,,
서문시장,36.635112,127.485367,,,,,,,,,,,
오창전통시장,36.741741,127.455617,,,,,,,,,,,
원마루시장,36.609034,127.496411,,,,,,,,,,,
육거리종합시장,36.627938,127.488184,,,,,,,,,,,
중앙시장,36.638827,127.489215,,,,,,,,,,,
직지시장,36.646579,127.466328,,,,,,,,,,,
청주두꺼비시장(구수곡시장),36.617436,127.472992,,,,,,,,,,,
춘천번개시장,37.891833,127.726307,,,,,,,,,,,
춘천서부시장,37.884815,127.724649,,,,,,,,,,,
춘천중앙시장,37.878494,127.725754,,,,,,,,,,,
춘천풍물시장,37.866237,127.719584,,,,,,,,,,,
춘천후평시장,37.88079022,127.746783,,,,,,,,,,,
장성중앙시장,37.100684,129.009713,,,,,,,,,,,
황지자유시장,37.173039,129.041227,,,,,,,,,,,
봉평전통시장(봉평시장),37.615592,128.3772803,,,,,,,,,,,
진부전통시장,37.638217,128.557926,,,,,,,,,,,
평창대화시장,37.501103,128.453993,,,,,,,,,,,
평창올림픽시장(평창전통시장),37.367236,128.394783,,,,,,,,,,,
홍천시장,37.690539,127.885907,,,,,,,,,,,
홍천중앙시장,37.691083,127.886165,,,,,,,,,,,
화천재래시장,38.103905,127.706426,,,,,,,,,,,
횡성시장,37.489891,127.9867302,,,,,,,,,,,
괴산전통시장,36.811219,127.795024,,,,,,,,,,,
목도재래시장,36.871336,127.8549397,,,,,,,,,,,
청천전통시장,36.659142,127.737849,,,,,,,,,,,
단양구경시장(단양인정시장),36.982491,128.369981,,,,,,,,,,,
매포전통시장(매포재래시장),37.03422045,128.2990703,,,,,,,,,,,
보은전통시장,36.48430017,127.720115,,,,,,,,,,,
결초보은시장(구 보은종합시장),36.48292036,127.719321,,,,,,,,,,,
영동전통시장,36.174905,127.776141,,,,,,,,,,,
영동중앙시장,36.174667,127.7756995,,,,,,,,,,,
옥천공설시장,36.302513,127.567915,,,,,,,,,,,
옥천상가,36.302392,127.568213,,,,,,,,,,,
감곡시장,37.118229,127.639174,,,,,,,,,,,
삼척중앙시장,37.442103,129.164622,,,,,,,,,,,
속초종합중앙시장,38.204522,128.590191,,,,,,,,,,,
속초관광수산시장(구 속초중앙전통시장),38.205509,128.589294,,,,,,,,,,,
양구중앙시장,38.104106,127.989329,,,,,,,,,,,
양양전통시장,38.075063,128.623293,,,,,,,,,,,
서부공설시장,37.182924,128.466313,,,,,,,,,,,
서부아침시장,37.183319,128.466753,,,,,,,,,,,
영월종합상가시장,37.182893,128.466647,,,,,,,,,,,
문막시장,37.306036,127.815359,,,,,,,,,,,
미로예술원주중앙시장(원주중앙시장),37.350012,127.949192,,,,,,,,,,,
민속풍물시장,37.348987,127.954117,,,,,,,,,,,
북원상가시장,37.384379,127.948848,,,,,,,,,,,
원주남부시장,37.343015,127.954488,,,,,,,,,,,
자유시장,37.350229,127.948625,,,,,,,,,,,
중앙시민전통시장,37.351266,127.949714,,,,,,,,,,,
원통시장,38.122581,128.204617,,,,,,,,,,,
인제시장,38.067099,128.171077,,,,,,,,,,,
고한구공탄시장(고한시장),37.201322,128.854054,,,,,,,,,,,
임계사통팔달시장,37.495114,128.852574,,,,,,,,,,,
정선사북시장,37.227362,128.816217,,,,,,,,,,,
정선아리랑시장,37.38039035,128.665226,,,,,,,,,,,
동송시장,38.20880978,127.218876,,,,,,,,,,,
동송전통시장,38.208901,127.219278,,,,,,,,,,,
신철원시장,38.144727,127.310025,,,,,,,,,,,
와수시장,38.239466,127.439494,,,,,,,,,,,
제일종합시장,37.877481,127.726081,,,,,,,,,,,
춘천남부시장,37.870563,127.726049,,,,,,,,,,,
춘천동부시장,37.877235,127.734114,,,,,,,,,,,
송탄시장,37.082106,127.057024,,,,,,,,,,,
안중시장,36.987536,126.928259,,,,,,,,,,,
중앙시장,37.079891,127.052367,,,,,,,,,,,
통복시장,37.079891,127.052367,,,,,,,,,,,
운천전통시장,38.089942,127.272225,,,,,,,,,,,
일동전통시장,37.959775,127.319484,,,,,,,,,,,
덕풍전통시장,37.541539,127.202919,,,,,,,,,,,
신장전통시장,37.537887,127.207028,,,,,,,,,,,
남양시장,37.2090298,126.815997,,,,,,,,,,,
이현종합상가,35.191991,128.066133,,,,,,,,,,,
발안시장,37.131463,126.909461,,,,,,,,,,,
사강시장,37.213302,126.736004,,,,,,,,,,,
조암시장,37.082198,126.817042,,,,,,,,,,,
강릉동부시장,37.755842,128.902005,,,,,,,,,,,
강릉서부시장,37.755094,128.890799,,,,,,,,,,,
강릉성남시장,37.753737,128.899051,,,,,,,,,,,
주문진건어물시장,37.891142,128.828752,,,,,,,,,,,
주문진수산시장,37.890769,128.827973,,,,,,,,,,,
주문진종합시장,37.891224,128.826893,,,,,,,,,,,
중앙시장,37.754024,128.898623,,,,,,,,,,,
간성전통시장(천년고성시장),38.379997,128.4694501,,,,,,,,,,,
거진시장,38.447839,128.453961,,,,,,,,,,,
동쪽바다중앙시장,37.551048,129.108572,,,,,,,,,,,
동해남부재래시장,37.487611,129.103548,,,,,,,,,,,
묵호시장,37.552359,129.114195,,,,,,,,,,,
북평민속시장,37.482472,129.126028,,,,,,,,,,,
도계전두시장,37.229134,129.0428102,,,,,,,,,,,
도계중앙시장,37.23515044,129.045108,,,,,,,,,,,
삼척번개시장,37.430905,129.178578,,,,,,,,,,,
덕양시장,34.79852953,127.6321283,,,,,,,,,,,
봉산시장,34.73215573,127.7224122,,,,,,,,,,,
쌍봉시장,34.76414801,127.6649944,,,,,,,,,,,
진남시장,34.76425614,127.6641226,,,,,,,,,,,
제일시장,34.76419709,127.6646523,,,,,,,,,,,
㈜여수수산시장,34.73814206,127.7317636,,,,,,,,,,,
㈜여수수산물특화시장,34.736825,127.732856,,,,,,,,,,,
㈜중앙시장,34.74059589,127.732581,,,,,,,,,,,
㈜서시장,34.74179248,127.728651,,,,,,,,,,,
서시장주변시장,34.74083202,127.728382,,,,,,,,,,,
진주논개시장(장대시장),35.195066,128.087223,,,,,,,,,,,
진주중앙시장,35.193923,128.084889,,,,,,,,,,,
천전시장,35.185086,128.088304,,,,,,,,,,,
평거한보하이타운,35.172651,128.059257,,,,,,,,,,,
남지시장,35.389116,128.482493,,,,,,,,,,,
영산시장,35.457042,128.532598,,,,,,,,,,,
이방정기시장,35.601412,128.382842,,,,,,,,,,,
창녕상설시장,35.540073,128.497359,,,,,,,,,,,
가음정대상가,35.208051,128.696992,,,,,,,,,,,
가음정시장,35.208284,128.697798,,,,,,,,,,,
경민인터빌상가,35.231903,128.583819,,,,,,,,,,,
경창상가,35.220165,128.679326,,,,,,,,,,,
경화시장,35.156595,128.686369,,,,,,,,,,,
구암시장,35.249539,128.599644,,,,,,,,,,,
구암현대시장,35.248235,128.590728,,,,,,,,,,,
기산프라자,35.20526975,128.580814,,,,,,,,,,,
대동그린코아상가,35.244974,128.6698901,,,,,,,,,,,
곤양종합시장,35.056533,127.963346,,,,,,,,,,,
사천읍시장,35.084059,128.089011,,,,,,,,,,,
삼천포용궁수산시장,34.927435,128.071764,,,,,,,,,,,
삼천포종합시장,34.932344,128.078545,,,,,,,,,,,
삼천포중앙시장,34.928923,128.076715,,,,,,,,,,,
완사시장,35.131218,127.976343,,,,,,,,,,,
단계시장,35.377119,128.011143,,,,,,,,,,,
단성시장,35.297923,127.958061,,,,,,,,,,,
덕산시장,35.277033,127.837744,,,,,,,,,,,
산청시장,35.415302,127.876228,,,,,,,,,,,
생초시장,35.492426,127.836023,,,,,,,,,,,
덕계종합상설시장,35.369751,129.147156,,,,,,,,,,,
서창시장,35.416283,129.172015,,,,,,,,,,,
신평시장,35.490598,129.085857,,,,,,,,,,,
양산남부시장,35.342444,129.037237,,,,,,,,,,,
양산남부시장상가,35.343389,129.037045,,,,,,,,,,,
양산북부시장,35.350449,129.041196,,,,,,,,,,,
신반시장,35.46761975,128.3245698,,,,,,,,,,,
의령시장,35.318749,128.2612495,,,,,,,,,,,
금곡시장,35.09075047,128.186231,,,,,,,,,,,
대곡시장,35.263701,128.168556,,,,,,,,,,,
동부종합상가,35.187045,128.116209,,,,,,,,,,,
문산시장,35.170465,128.169157,,,,,,,,,,,
일반성상가(일반성시장),35.171224,128.282207,,,,,,,,,,,
자유시장,35.180168,128.110305,,,,,,,,,,,
진주동성상가,35.180922,128.089333,,,,,,,,,,,
성주시장,35.91502532,128.285479,,,,,,,,,,,
벽진시장,35.94876617,128.216546,,,,,,,,,,,
옥현상가,34.896917,128.689927,,,,,,,,,,,
장평종합시장,34.890862,128.613105,,,,,,,,,,,
한라프라자,34.888204,128.6235602,,,,,,,,,,,
회원프라자,34.889028,128.624829,,,,,,,,,,,
거창시장,35.686831,127.914038,,,,,,,,,,,
고성공룡시장,34.972662,128.32338,,,,,,,,,,,
고성시장,34.97730013,128.323048,,,,,,,,,,,
배둔시장,35.05742987,128.3688699,,,,,,,,,,,
영오시장,35.108954,128.237686,,,,,,,,,,,
김해전통시장(김해동상시장),35.236238,128.883859,,,,,,,,,,,
삼방시장,35.250198,128.909036,,,,,,,,,,,
외동전통시장,35.232937,128.866007,,,,,,,,,,,
장유전통시장(장유중앙시장),35.200569,128.814808,,,,,,,,,,,
진례전통시장,35.248854,128.748926,,,,,,,,,,,
진영전통시장,35.302314,128.730627,,,,,,,,,,,
남면공설시장,34.771079,127.885914,,,,,,,,,,,
남해전통시장,34.840147,127.894484,,,,,,,,,,,
이동공설시장,34.80114029,127.953826,,,,,,,,,,,
내일전통시장,35.493336,128.753309,,,,,,,,,,,
무안시장(무안임시시장),35.470324,128.652098,,,,,,,,,,,
밀양아리랑시장,35.493059,128.752554,,,,,,,,,,,
송백시장,35.58629962,128.881702,,,,,,,,,,,
송지시장,35.396868,128.837196,,,,,,,,,,,
수산시장,35.374226,128.708781,,,,,,,,,,,
대해불빛시장,36.018799,129.368561,,,,,,,,,,,
두호1시장,36.061744,129.36936,,,,,,,,,,,
상대종합시장,36.019931,129.361108,,,,,,,,,,,
양학시장,36.027267,129.349741,,,,,,,,,,,
연일전통시장,35.996356,129.348683,,,,,,,,,,,
영남시장,35.987942,129.449615,,,,,,,,,,,
영일대북부시장,36.04629984,129.369104,,,,,,,,,,,
오천삼광시장,35.978304,129.412338,,,,,,,,,,,
오천시장,35.966472,129.4142295,,,,,,,,,,,
용흥시장,36.041634,129.351384,,,,,,,,,,,
장량성도시장,36.06828032,129.381372,,,,,,,,,,,
죽도농산물시장,36.034578,129.367968,,,,,,,,,,,
죽도시장,36.036419,129.368141,,,,,,,,,,,
죽도어시장,36.035134,129.369079,,,,,,,,,,,
중앙상가,36.040158,129.366151,,,,,,,,,,,
청하시장,36.197075,129.339661,,,,,,,,,,,
큰동해시장,36.026553,129.370981,,,,,,,,,,,
포항운하송림시장,36.028204,129.376312,,,,,,,,,,,
한라종합시장,36.041226,129.351271,,,,,,,,,,,
해도5(형산)시장,36.012702,129.366493,,,,,,,,,,,
효자시장,36.008551,129.332678,,,,,,,,,,,
흥해시장,36.110619,129.348288,,,,,,,,,,,
거제고현시장,34.886258,128.623655,,,,,,,,,,,
신부시장,34.868113,128.730088,,,,,,,,,,,
옥수동새시장,34.875713,128.732108,,,,,,,,,,,
옥수시장,34.875344,128.730873,,,,,,,,,,,
옥포국제시장,34.89396951,128.689238,,,,,,,,,,,
